[{"name": "坡子街街道坡子街社区治安巡防站", "location": {"lat": 28.197078, "lng": 112.978587}, "address": "太平街与解放西路交叉口东南100米", "province": "湖南省", "city": "长沙市", "area": "天心区", "street_id": "2944afe976f5b9317c29bda3", "detail": 1, "uid": "2944afe976f5b9317c29bda3"}, {"name": "坡子街派出所", "location": {"lat": 28.196434, "lng": 112.979249}, "address": "火后街14号", "province": "湖南省", "city": "长沙市", "area": "天心区", "street_id": "26603f62ba80b755a80dd817", "detail": 1, "uid": "26603f62ba80b755a80dd817"}, {"name": "坡子街街道城区综合管理大队坡子街中队", "location": {"lat": 28.196328, "lng": 112.978117}, "address": "湖南省长沙市天心区福胜街3号附近", "province": "湖南省", "city": "长沙市", "area": "天心区", "street_id": "26ee2079aafd434a1df74d1b", "detail": 1, "uid": "26ee2079aafd434a1df74d1b"}, {"name": "天心区地方税务局第二税务分局", "location": {"lat": 28.196029, "lng": 112.978498}, "address": "坡子街128", "province": "湖南省", "city": "长沙市", "area": "天心区", "street_id": "a71714b69079bff45fbe86f7", "detail": 1, "uid": "a71714b69079bff45fbe86f7"}, {"name": "长沙恒隆资产经营有限公司直管公房拆迁指挥部", "location": {"lat": 28.195601, "lng": 112.979251}, "address": "坡子街与衣铺街交叉口南50米", "province": "湖南省", "city": "长沙市", "area": "天心区", "street_id": "987c272559882a26d813180e", "detail": 1, "uid": "987c272559882a26d813180e"}, {"name": "长沙市城南路国税局", "location": {"lat": 28.197669, "lng": 112.979691}, "address": "解放西路376号湘茶大厦3层", "province": "湖南省", "city": "长沙市", "area": "天心区", "street_id": "d146b38814e75add75026987", "detail": 1, "uid": "d146b38814e75add75026987"}, {"name": "天心区桥南工商所", "location": {"lat": 28.197672, "lng": 112.979691}, "address": "解放西路376号湘茶大厦6层", "province": "湖南省", "city": "长沙市", "area": "天心区", "street_id": "fc7675248e3634fa4e776e6b", "telephone": "(0731)84432425", "detail": 1, "uid": "fc7675248e3634fa4e776e6b"}, {"name": "湖南省茶业协会", "location": {"lat": 28.198391, "lng": 112.97819}, "address": "五一大道599", "province": "湖南省", "city": "长沙市", "area": "天心区", "street_id": "a1e1655eef574fd84354d7f7", "detail": 1, "uid": "a1e1655eef574fd84354d7f7"}, {"name": "长沙市天心区新下河街棚户区改造项目征收指挥部", "location": {"lat": 28.198101, "lng": 112.977096}, "address": "湖南省长沙市天心区金线街汀兰雅苑东(BOBO国际西北)", "province": "湖南省", "city": "长沙市", "area": "天心区", "street_id": "91a54ced3e354fc0d6b74e8e", "detail": 1, "uid": "91a54ced3e354fc0d6b74e8e"}, {"name": "天心区司法局坡子街司法所", "location": {"lat": 28.19523, "lng": 112.980185}, "address": "坡子街91号附近", "province": "湖南省", "city": "长沙市", "area": "天心区", "street_id": "eb7a4f1b3865805397ec8472", "detail": 1, "uid": "eb7a4f1b3865805397ec8472"}, {"name": "坡子街街道办事处", "location": {"lat": 28.195375, "lng": 112.980581}, "address": "长沙市天心区坡子街126号", "province": "湖南省", "city": "长沙市", "area": "天心区", "street_id": "d387ab2e0163d1b48bdb73e6", "detail": 1, "uid": "5bf9b6d66d360804a80dd87a"}, {"name": "中共长沙市天心区坡子街街道工作委员会", "location": {"lat": 28.19516, "lng": 112.980517}, "address": "湖南省长沙市天心区坡子街91号附近", "province": "湖南省", "city": "长沙市", "area": "天心区", "street_id": "03f70d2dbd34ea6b6cc02cf2", "detail": 1, "uid": "03f70d2dbd34ea6b6cc02cf2"}, {"name": "中共坡子街街道坡子街社区支部委员会", "location": {"lat": 28.194981, "lng": 112.980391}, "address": "坡子街91号附近", "province": "湖南省", "city": "长沙市", "area": "天心区", "street_id": "7828d25ba8ec7039a8f729a2", "detail": 1, "uid": "7828d25ba8ec7039a8f729a2"}, {"name": "八角亭社区-劳动社区保障管理服务中心", "location": {"lat": 28.198242, "lng": 112.980612}, "address": "三兴街李富春故居附近", "province": "湖南省", "city": "长沙市", "area": "天心区", "street_id": "e929b240c4a66cd997031949", "detail": 1, "uid": "e929b240c4a66cd997031949"}, {"name": "坡子街街道党务政务服务中心", "location": {"lat": 28.195194, "lng": 112.980687}, "address": "长沙市天心区坡子街216号悦方iDmallF1", "province": "湖南省", "city": "长沙市", "area": "天心区", "street_id": "9ff30cef14ce358b03ec0187", "detail": 1, "uid": "9ff30cef14ce358b03ec0187"}, {"name": "坡子街派出所坡子街警务室", "location": {"lat": 28.196849, "lng": 112.975944}, "address": "坡子街与湘江中路交叉口东北100米", "province": "湖南省", "city": "长沙市", "area": "天心区", "street_id": "d950966a4aa4073ff50e7754", "detail": 1, "uid": "d950966a4aa4073ff50e7754"}, {"name": "该店早就关门了，搬了地方", "location": {"lat": 28.194311, "lng": 112.979934}, "address": "天心区人民西路151号", "province": "湖南省", "city": "长沙市", "area": "天心区", "detail": 1, "uid": "a4b35d54ab2639b73686f470"}, {"name": "长沙创投协会", "location": {"lat": 28.197912, "lng": 112.975774}, "address": "解放西路466汇源大厦5层", "province": "湖南省", "city": "长沙市", "area": "天心区", "street_id": "c6dcd608e4bdffdab4265531", "telephone": "(0731)88286890", "detail": 1, "uid": "c6dcd608e4bdffdab4265531"}, {"name": "长沙市法学会", "location": {"lat": 28.19763, "lng": 112.981754}, "address": "解放西路316号王府井商业广场商务楼10层1007-1008", "province": "湖南省", "city": "长沙市", "area": "天心区", "street_id": "4959a8b9afb123b03b221cbc", "detail": 1, "uid": "4959a8b9afb123b03b221cbc"}, {"name": "学院街派出所樊西巷社区警务室", "location": {"lat": 28.193862, "lng": 112.979458}, "address": "湖南省长沙市天心区人民西路78号附近", "province": "湖南省", "city": "长沙市", "area": "天心区", "street_id": "22990af9a1e4dfb087330454", "detail": 1, "uid": "22990af9a1e4dfb087330454"}]