[{"name": "湖南省计算机学会", "location": {"lat": 28.180824, "lng": 112.952137}, "address": "湖南省长沙市岳麓区麓山南路116号", "province": "湖南省", "city": "长沙市", "area": "岳麓区", "street_id": "3defc3617129097088f15d22", "detail": 1, "uid": "3defc3617129097088f15d22"}, {"name": "致尚餐厅", "location": {"lat": 28.178028, "lng": 112.951127}, "address": "麓山南路282号2楼", "province": "湖南省", "city": "长沙市", "area": "岳麓区", "street_id": "dcb1c6a802945edac6effb5b", "telephone": "(0731)89706009", "detail": 1, "uid": "dcb1c6a802945edac6effb5b"}, {"name": "微萨披萨(麓山南路店)", "location": {"lat": 28.178273, "lng": 112.951353}, "address": "麓山南路260号", "province": "湖南省", "city": "长沙市", "area": "岳麓区", "street_id": "09ff5adc38e97c9031870ac8", "telephone": "15111145382", "detail": 1, "uid": "0e7a05a1d1f1d3afa11de955"}, {"name": "湘食香滋", "location": {"lat": 28.17943, "lng": 112.95164}, "address": "麓山南路228号渔湾市公交站旁", "province": "湖南省", "city": "长沙市", "area": "岳麓区", "street_id": "705fcdc8115e90e69f09f76c", "telephone": "18508439939", "detail": 1, "uid": "705fcdc8115e90e69f09f76c"}, {"name": "巴蜀石锅鱼(有鱼石锅小厨)", "location": {"lat": 28.177422, "lng": 112.950863}, "address": "麓山南路326号", "province": "湖南省", "city": "长沙市", "area": "岳麓区", "street_id": "9c02a731a50225980482c215", "telephone": "(0731)88035667,15116162708", "detail": 1, "uid": "480b24d0701110e89dec2be3"}, {"name": "鱼当家", "location": {"lat": 28.177803, "lng": 112.950943}, "address": "桔子洲街道麓山南路298号", "province": "湖南省", "city": "长沙市", "area": "岳麓区", "street_id": "60068f9bbbed0a32d418b7c3", "telephone": "18707488821", "detail": 1, "uid": "60068f9bbbed0a32d418b7c3"}, {"name": "筷乐食光", "location": {"lat": 28.179465, "lng": 112.951635}, "address": "桔子洲街道麓山南路212号二楼", "province": "湖南省", "city": "长沙市", "area": "岳麓区", "street_id": "10c7bc62a1df90da8c1a8937", "telephone": "13212615159", "detail": 1, "uid": "10c7bc62a1df90da8c1a8937"}, {"name": "猫屿", "location": {"lat": 28.177199, "lng": 112.950957}, "address": "桔子洲街道麓山南路330号", "province": "湖南省", "city": "长沙市", "area": "岳麓区", "street_id": "1b0f143891d63855364aae2e", "telephone": "15116259113", "detail": 1, "uid": "1b0f143891d63855364aae2e"}, {"name": "会南北南北汇聚", "location": {"lat": 28.180344, "lng": 112.951704}, "address": "麓山南路162号(湖南大学信息科学学院斜对面)", "province": "湖南省", "city": "长沙市", "area": "岳麓区", "street_id": "05bef15078abdfe6d0ff2311", "telephone": "15574900234", "detail": 1, "uid": "05bef15078abdfe6d0ff2311"}, {"name": "青年餐厅(麓山南路店)", "location": {"lat": 28.18065, "lng": 112.95163}, "address": "麓山南路152号（近渔湾市）", "province": "湖南省", "city": "长沙市", "area": "岳麓区", "street_id": "5ce2637da8a05048ae31e512", "telephone": "18607315631", "detail": 1, "uid": "5ce2637da8a05048ae31e512"}, {"name": "十味烤全鱼", "location": {"lat": 28.18095, "lng": 112.951571}, "address": "麓山南路128-1号(湖南大学计算机与工程学院正对面)", "province": "湖南省", "city": "长沙市", "area": "岳麓区", "street_id": "b31ccba73f2586a086420e7c", "telephone": "13787259268", "detail": 1, "uid": "b31ccba73f2586a086420e7c"}, {"name": "仙豆糕", "location": {"lat": 28.179398, "lng": 112.951738}, "address": "湖南省长沙市岳麓区麓山南路222号", "province": "湖南省", "city": "长沙市", "area": "岳麓区", "telephone": "18627275117", "detail": 1, "uid": "d02abc33825c37040f0a7032"}, {"name": "老头子糖油粑粑", "location": {"lat": 28.179789, "lng": 112.951848}, "address": "麓山南路202号（近湖南大学）", "province": "湖南省", "city": "长沙市", "area": "岳麓区", "street_id": "cac5fc76a94b84ea2cb96d48", "detail": 1, "uid": "cac5fc76a94b84ea2cb96d48"}, {"name": "梅干菜扣肉饼", "location": {"lat": 28.176885, "lng": 112.950685}, "address": "长沙岳麓区麓山南路368号(近天马学生公寓)", "province": "湖南省", "city": "长沙市", "area": "岳麓区", "street_id": "eb36750391a9a50200ec011f", "telephone": "13342196995", "detail": 1, "uid": "eb36750391a9a50200ec011f"}, {"name": "臭名远扬臭豆腐(麓山南路店)", "location": {"lat": 28.176905, "lng": 112.950695}, "address": "岳麓区麓山南路364号(阜埠河路口)", "province": "湖南省", "city": "长沙市", "area": "岳麓区", "street_id": "3a0a78bda8429ee363180906", "telephone": "13908474653", "detail": 1, "uid": "3a0a78bda8429ee363180906"}, {"name": "老潼关肉夹馍", "location": {"lat": 28.176662, "lng": 112.95069}, "address": "麓山南路376号", "province": "湖南省", "city": "长沙市", "area": "岳麓区", "telephone": "18670018523", "detail": 1, "uid": "38768227917df3e02fb17eff"}, {"name": "仙都辣酱鸭(麓山南路店)", "location": {"lat": 28.176056, "lng": 112.950214}, "address": "麓山南路416号", "province": "湖南省", "city": "长沙市", "area": "岳麓区", "street_id": "00dae6089d51cabcfd0eb091", "telephone": "13298697889", "detail": 1, "uid": "00dae6089d51cabcfd0eb091"}, {"name": "桂林小吃", "location": {"lat": 28.176628, "lng": 112.950575}, "address": "麓山南路382号", "province": "湖南省", "city": "长沙市", "area": "岳麓区", "street_id": "5ffb1816b317de466e476094", "telephone": "(0731)82308825", "detail": 1, "uid": "5ffb1816b317de466e476094"}, {"name": "同湘园餐馆", "location": {"lat": 28.175961, "lng": 112.950234}, "address": "麓山南路489号(笑江湖后面)", "province": "湖南省", "city": "长沙市", "area": "岳麓区", "street_id": "84608f340c48b3fb5fbe864c", "telephone": "15200919770", "detail": 1, "uid": "84608f340c48b3fb5fbe864c"}, {"name": "李记沙县小吃", "location": {"lat": 28.177474, "lng": 112.950924}, "address": "麓山南路314号", "province": "湖南省", "city": "长沙市", "area": "岳麓区", "street_id": "6b095d4fe9b9c993f4eafc47", "telephone": "18397351751", "detail": 1, "uid": "6b095d4fe9b9c993f4eafc47"}]