[{"name": "近现代保护建筑", "location": {"lat": 28.185119, "lng": 112.950482}, "address": "湖南省长沙市岳麓区麓山南路2", "province": "湖南省", "city": "长沙市", "area": "岳麓区", "street_id": "8519c7b876bca26e49fd3f62", "detail": 1, "uid": "8519c7b876bca26e49fd3f62"}, {"name": "湖南省经济数学研究会", "location": {"lat": 28.186841, "lng": 112.949182}, "address": "麓山南路2号湖南大学", "province": "湖南省", "city": "长沙市", "area": "岳麓区", "street_id": "bfe589991d2d18e6882fb55b", "detail": 1, "uid": "bfe589991d2d18e6882fb55b"}, {"name": "湖南大学-信息化建设与管理办公室", "location": {"lat": 28.184944, "lng": 112.951156}, "address": "麓山南路1号", "province": "湖南省", "city": "长沙市", "area": "岳麓区", "street_id": "98936e39cb562260c7f50dbc", "detail": 1, "uid": "98936e39cb562260c7f50dbc"}, {"name": "湖南大学-人口和计划生育管理处", "location": {"lat": 28.184589, "lng": 112.948165}, "address": "湖南省长沙市岳麓区登高路56号", "province": "湖南省", "city": "长沙市", "area": "岳麓区", "street_id": "adf72e8a40329c22882fb51b", "detail": 1, "uid": "adf72e8a40329c22882fb51b"}, {"name": "湖南省电工技术学会", "location": {"lat": 28.187467, "lng": 112.951814}, "address": "麓山南路2号湖南大学电气与信息工程学院附近", "province": "湖南省", "city": "长沙市", "area": "岳麓区", "street_id": "cef12c20e6c136c00ab93a47", "detail": 1, "uid": "cef12c20e6c136c00ab93a47"}, {"name": "长沙市公安局交通警察支队岳麓大队四中队(登高路)", "location": {"lat": 28.18423, "lng": 112.948245}, "address": "长沙市岳麓区登高路55号附近", "province": "湖南省", "city": "长沙市", "area": "岳麓区", "street_id": "227081c3d4d29115b23c81b2", "detail": 1, "uid": "a953a223096404584c3a5988"}, {"name": "湖南大学校友总会", "location": {"lat": 28.186514, "lng": 112.947347}, "address": "长沙市岳麓区湖南大学岳麓书院岳麓书院内", "province": "湖南省", "city": "长沙市", "area": "岳麓区", "detail": 1, "uid": "375d7d32e12393ba94f08cf6"}, {"name": "湖南大学资产管理中心", "location": {"lat": 28.184888, "lng": 112.953137}, "address": "牌楼路与麓山路交叉口南100米", "province": "湖南省", "city": "长沙市", "area": "岳麓区", "street_id": "a4b6136cf99b6a328bf15d14", "detail": 1, "uid": "a4b6136cf99b6a328bf15d14"}, {"name": "湖南大学-计生协", "location": {"lat": 28.182874, "lng": 112.950312}, "address": "麓山南路2号湖南大学", "province": "湖南省", "city": "长沙市", "area": "岳麓区", "street_id": "ad725b7d300b72e8283a9fe0", "detail": 1, "uid": "ad725b7d300b72e8283a9fe0"}, {"name": "长沙市地震局", "location": {"lat": 28.183586, "lng": 112.947594}, "address": "湖南省长沙市岳麓区登高路58号湖大附中左侧", "province": "湖南省", "city": "长沙市", "area": "岳麓区", "street_id": "2cc3c8e887ce48a84d2fdfe2", "detail": 1, "uid": "2cc3c8e887ce48a84d2fdfe2"}, {"name": "湖南省劳动保护监测检验中心站除尘设备检验", "location": {"lat": 28.186313, "lng": 112.953488}, "address": "麓山路327", "province": "湖南省", "city": "长沙市", "area": "岳麓区", "street_id": "debb0dd931eb8daa81288a9b", "detail": 1, "uid": "debb0dd931eb8daa81288a9b"}, {"name": "湖南省硅酸盐学会", "location": {"lat": 28.187718, "lng": 112.953054}, "address": "湖南省长沙市岳麓区麓山路374", "province": "湖南省", "city": "长沙市", "area": "岳麓区", "street_id": "feb1a4d65d2d6908d518b7b0", "detail": 1, "uid": "feb1a4d65d2d6908d518b7b0"}, {"name": "湖南省交通工具工业设计中心", "location": {"lat": 28.184537, "lng": 112.953483}, "address": "麓山南路2号湖南大学", "province": "湖南省", "city": "长沙市", "area": "岳麓区", "street_id": "71b4c74b9247a683f723100e", "detail": 1, "uid": "71b4c74b9247a683f723100e"}, {"name": "湖南师范大学教育基金会", "location": {"lat": 28.188282, "lng": 112.952898}, "address": "长沙市岳麓区麓山路360号附近", "province": "湖南省", "city": "长沙市", "area": "岳麓区", "street_id": "e5a8d4dbe034edab5abbbc91", "detail": 1, "uid": "e5a8d4dbe034edab5abbbc91"}, {"name": "湖南师范大学档案馆", "location": {"lat": 28.188345, "lng": 112.952978}, "address": "长沙市岳麓区麓山路36号湖南师范大学", "province": "湖南省", "city": "长沙市", "area": "岳麓区", "street_id": "435d7aea81fcd2365abbbc57", "detail": 1, "uid": "435d7aea81fcd2365abbbc57"}, {"name": "湖南省给水排水实验室", "location": {"lat": 28.182803, "lng": 112.95329}, "address": "湖南省长沙市岳麓区麓山南路", "province": "湖南省", "city": "长沙市", "area": "岳麓区", "street_id": "d7ac7a9620729a67aecb662f", "detail": 1, "uid": "d7ac7a9620729a67aecb662f"}, {"name": "杨裕兴(岳麓山店)", "location": {"lat": 28.184794, "lng": 112.948874}, "address": "湖南省长沙市岳麓区登高路22", "province": "湖南省", "city": "长沙市", "area": "岳麓区", "street_id": "b292b3aafd473a4fbf48429d", "telephone": "(0731)85455847", "detail": 1, "uid": "b292b3aafd473a4fbf48429d"}, {"name": "麻辣香锅(麓山景区店)", "location": {"lat": 28.184653, "lng": 112.949152}, "address": "大学城登高路8号", "province": "湖南省", "city": "长沙市", "area": "岳麓区", "street_id": "ab046ecf26c13251adb22ad4", "telephone": "13469430347", "detail": 1, "uid": "ab046ecf26c13251adb22ad4"}, {"name": "贵哥卤肉卷(岳麓山店)", "location": {"lat": 28.184513, "lng": 112.94901}, "address": "湖南省长沙市岳麓区登高路39", "province": "湖南省", "city": "长沙市", "area": "岳麓区", "street_id": "f31e1b49999c95734c3a59e6", "telephone": "13755100822", "detail": 1, "uid": "f31e1b49999c95734c3a59e6"}, {"name": "集贤宾馆-餐厅", "location": {"lat": 28.187634, "lng": 112.94867}, "address": "登高路", "province": "湖南省", "city": "长沙市", "area": "岳麓区", "street_id": "605341cfb25f52785d0d02f3", "telephone": "(0731)88822179", "detail": 1, "uid": "605341cfb25f52785d0d02f3"}]