[{"name": "坡子街街道城区综合管理大队坡子街中队", "location": {"lat": 28.196328, "lng": 112.978117}, "address": "湖南省长沙市天心区福胜街3号附近", "province": "湖南省", "city": "长沙市", "area": "天心区", "street_id": "26ee2079aafd434a1df74d1b", "detail": 1, "uid": "26ee2079aafd434a1df74d1b"}, {"name": "天心区地方税务局第二税务分局", "location": {"lat": 28.196029, "lng": 112.978498}, "address": "坡子街128", "province": "湖南省", "city": "长沙市", "area": "天心区", "street_id": "a71714b69079bff45fbe86f7", "detail": 1, "uid": "a71714b69079bff45fbe86f7"}, {"name": "长沙恒隆资产经营有限公司直管公房拆迁指挥部", "location": {"lat": 28.195601, "lng": 112.979251}, "address": "坡子街与衣铺街交叉口南50米", "province": "湖南省", "city": "长沙市", "area": "天心区", "street_id": "987c272559882a26d813180e", "detail": 1, "uid": "987c272559882a26d813180e"}, {"name": "坡子街派出所", "location": {"lat": 28.196434, "lng": 112.979249}, "address": "火后街14号", "province": "湖南省", "city": "长沙市", "area": "天心区", "street_id": "26603f62ba80b755a80dd817", "detail": 1, "uid": "26603f62ba80b755a80dd817"}, {"name": "坡子街街道坡子街社区治安巡防站", "location": {"lat": 28.197078, "lng": 112.978587}, "address": "太平街与解放西路交叉口东南100米", "province": "湖南省", "city": "长沙市", "area": "天心区", "street_id": "2944afe976f5b9317c29bda3", "detail": 1, "uid": "2944afe976f5b9317c29bda3"}, {"name": "坡子街派出所坡子街警务室", "location": {"lat": 28.196849, "lng": 112.975944}, "address": "坡子街与湘江中路交叉口东北100米", "province": "湖南省", "city": "长沙市", "area": "天心区", "street_id": "d950966a4aa4073ff50e7754", "detail": 1, "uid": "d950966a4aa4073ff50e7754"}, {"name": "沿江风光带玉城南段管理办公室", "location": {"lat": 28.195411, "lng": 112.975136}, "address": "湖南省长沙市天心区半湘街54号", "province": "湖南省", "city": "长沙市", "area": "天心区", "street_id": "9d5a5770422719bf725e8052", "detail": 1, "uid": "9d5a5770422719bf725e8052"}, {"name": "长沙市工务局项目建设管理五部", "location": {"lat": 28.196144, "lng": 112.975253}, "address": "坡子街与湘江中路交叉口西南100米", "province": "湖南省", "city": "长沙市", "area": "天心区", "street_id": "a750efce9e16092fad080f93", "detail": 1, "uid": "a750efce9e16092fad080f93"}, {"name": "学院街派出所樊西巷社区警务室", "location": {"lat": 28.193862, "lng": 112.979458}, "address": "湖南省长沙市天心区人民西路78号附近", "province": "湖南省", "city": "长沙市", "area": "天心区", "street_id": "22990af9a1e4dfb087330454", "detail": 1, "uid": "22990af9a1e4dfb087330454"}, {"name": "天心区司法局坡子街司法所", "location": {"lat": 28.19523, "lng": 112.980185}, "address": "坡子街91号附近", "province": "湖南省", "city": "长沙市", "area": "天心区", "street_id": "eb7a4f1b3865805397ec8472", "detail": 1, "uid": "eb7a4f1b3865805397ec8472"}, {"name": "该店早就关门了，搬了地方", "location": {"lat": 28.194311, "lng": 112.979934}, "address": "天心区人民西路151号", "province": "湖南省", "city": "长沙市", "area": "天心区", "detail": 1, "uid": "a4b35d54ab2639b73686f470"}, {"name": "坡子街派出所文庙坪警务室", "location": {"lat": 28.193885, "lng": 112.975468}, "address": "湘江中路60号附近", "province": "湖南省", "city": "长沙市", "area": "天心区", "street_id": "f5f66c04f9f504ea32f71d36", "detail": 1, "uid": "f5f66c04f9f504ea32f71d36"}, {"name": "中共坡子街街道坡子街社区支部委员会", "location": {"lat": 28.194981, "lng": 112.980391}, "address": "坡子街91号附近", "province": "湖南省", "city": "长沙市", "area": "天心区", "street_id": "7828d25ba8ec7039a8f729a2", "detail": 1, "uid": "7828d25ba8ec7039a8f729a2"}, {"name": "中共长沙市天心区坡子街街道工作委员会", "location": {"lat": 28.19516, "lng": 112.980517}, "address": "湖南省长沙市天心区坡子街91号附近", "province": "湖南省", "city": "长沙市", "area": "天心区", "street_id": "03f70d2dbd34ea6b6cc02cf2", "detail": 1, "uid": "03f70d2dbd34ea6b6cc02cf2"}, {"name": "坡子街街道办事处", "location": {"lat": 28.195375, "lng": 112.980581}, "address": "长沙市天心区坡子街126号", "province": "湖南省", "city": "长沙市", "area": "天心区", "street_id": "d387ab2e0163d1b48bdb73e6", "detail": 1, "uid": "5bf9b6d66d360804a80dd87a"}, {"name": "文庙坪社区流动人口和出租房屋管理服务中心", "location": {"lat": 28.193027, "lng": 112.976254}, "address": "湖南省长沙市天心区湘江中路69号附近", "province": "湖南省", "city": "长沙市", "area": "天心区", "street_id": "94f996d73fb213a46068585b", "detail": 1, "uid": "94f996d73fb213a46068585b"}, {"name": "文庙坪社区人民调解委员会", "location": {"lat": 28.193027, "lng": 112.976245}, "address": "湖南省长沙市天心区湘江中路69号附近", "province": "湖南省", "city": "长沙市", "area": "天心区", "street_id": "2a0851baa7acee2e2ce67bf7", "detail": 1, "uid": "2a0851baa7acee2e2ce67bf7"}, {"name": "文庙坪社区党支部流动党员登记管理站", "location": {"lat": 28.193019, "lng": 112.976254}, "address": "湖南省长沙市天心区湘江中路69号附近", "province": "湖南省", "city": "长沙市", "area": "天心区", "street_id": "ebc97cf17952aff2e812e4d9", "detail": 1, "uid": "ebc97cf17952aff2e812e4d9"}, {"name": "文庙坪社区残疾人协会", "location": {"lat": 28.193015, "lng": 112.976245}, "address": "湖南省长沙市天心区湘江中路69号附近", "province": "湖南省", "city": "长沙市", "area": "天心区", "street_id": "f56cb18f103aa758e81e97a6", "detail": 1, "uid": "f56cb18f103aa758e81e97a6"}, {"name": "长沙市天心区新下河街棚户区改造项目征收指挥部", "location": {"lat": 28.198101, "lng": 112.977096}, "address": "湖南省长沙市天心区金线街汀兰雅苑东(BOBO国际西北)", "province": "湖南省", "city": "长沙市", "area": "天心区", "street_id": "91a54ced3e354fc0d6b74e8e", "detail": 1, "uid": "91a54ced3e354fc0d6b74e8e"}]