[{"name": "坡子街街道登仁桥社区-工会联合会", "location": {"lat": 28.192196, "lng": 112.978904}, "address": "湖南省长沙市天心区上黎家坡巷108号", "province": "湖南省", "city": "长沙市", "area": "天心区", "street_id": "2ece6a29d8e58ebf97ec8468", "detail": 1, "uid": "2ece6a29d8e58ebf97ec8468"}, {"name": "中共坡子街街道登仁桥社区支部委员会", "location": {"lat": 28.192197, "lng": 112.978904}, "address": "上黎家坡巷45号附近", "province": "湖南省", "city": "长沙市", "area": "天心区", "street_id": "8d1cc1976ab9e3a16240a9bb", "detail": 1, "uid": "8d1cc1976ab9e3a16240a9bb"}, {"name": "登仁桥社区-人力资源和和社会保障服务中心", "location": {"lat": 28.192254, "lng": 112.978955}, "address": "上黎家坡巷108号", "province": "湖南省", "city": "长沙市", "area": "天心区", "street_id": "51f6fed8b26dcb04ce04efa2", "detail": 1, "uid": "51f6fed8b26dcb04ce04efa2"}, {"name": "坡子街街道登仁桥社区-居民委员会", "location": {"lat": 28.192255, "lng": 112.978955}, "address": "上黎家坡巷108", "province": "湖南省", "city": "长沙市", "area": "天心区", "street_id": "fa01e93760389a37774ff1d2", "telephone": "(0731)85116226", "detail": 1, "uid": "fa01e93760389a37774ff1d2"}, {"name": "中共培粹实验中学支部委员会", "location": {"lat": 28.191873, "lng": 112.979314}, "address": "上黎家坡巷43号附近", "province": "湖南省", "city": "长沙市", "area": "天心区", "detail": 1, "uid": "f05c3ddb27273dd5e6e96542"}, {"name": "文庙坪社区志愿者工作站", "location": {"lat": 28.190567, "lng": 112.978573}, "address": "湖南省长沙市天心区修文街63附近", "province": "湖南省", "city": "长沙市", "area": "天心区", "street_id": "34cfae2e426867cd30169bbf", "detail": 1, "uid": "34cfae2e426867cd30169bbf"}, {"name": "中共文庙坪社区支部委员会", "location": {"lat": 28.190466, "lng": 112.978674}, "address": "湖南省长沙市天心区西文庙坪巷11附近", "province": "湖南省", "city": "长沙市", "area": "天心区", "street_id": "ccc2fc5b0e2397f5eb12e405", "detail": 1, "uid": "ccc2fc5b0e2397f5eb12e405"}, {"name": "坡子街街道文庙坪社区居民委员会", "location": {"lat": 28.190479, "lng": 112.978599}, "address": "湖南省长沙市天心区西文庙坪巷19号附近", "province": "湖南省", "city": "长沙市", "area": "天心区", "street_id": "66c347726edf8d6db21e3669", "detail": 1, "uid": "66c347726edf8d6db21e3669"}, {"name": "学院街派出所樊西巷社区警务室", "location": {"lat": 28.193862, "lng": 112.979458}, "address": "湖南省长沙市天心区人民西路78号附近", "province": "湖南省", "city": "长沙市", "area": "天心区", "street_id": "22990af9a1e4dfb087330454", "detail": 1, "uid": "22990af9a1e4dfb087330454"}, {"name": "天心公安分局学院街派出所", "location": {"lat": 28.191089, "lng": 112.980973}, "address": "湖南省长沙市天心区长郡中学(三府坪巷西)", "province": "湖南省", "city": "长沙市", "area": "天心区", "street_id": "c0120e06379ee35a2e47333e", "detail": 1, "uid": "c0120e06379ee35a2e47333e"}, {"name": "学院街派出所治安执勤室", "location": {"lat": 28.190847, "lng": 112.98128}, "address": "学院街24号", "province": "湖南省", "city": "长沙市", "area": "天心区", "street_id": "2a7acae7cde9fa71c17da282", "detail": 1, "uid": "2a7acae7cde9fa71c17da282"}, {"name": "该店早就关门了，搬了地方", "location": {"lat": 28.194311, "lng": 112.979934}, "address": "天心区人民西路151号", "province": "湖南省", "city": "长沙市", "area": "天心区", "detail": 1, "uid": "a4b35d54ab2639b73686f470"}, {"name": "中共坡子街街道文庙坪社区支部委员会", "location": {"lat": 28.192863, "lng": 112.976333}, "address": "湘江中路70号附近", "province": "湖南省", "city": "长沙市", "area": "天心区", "street_id": "97c387cbd138eaadca1b95f2", "detail": 1, "uid": "97c387cbd138eaadca1b95f2"}, {"name": "文庙坪社区党支部流动党员登记管理站", "location": {"lat": 28.193019, "lng": 112.976254}, "address": "湖南省长沙市天心区湘江中路69号附近", "province": "湖南省", "city": "长沙市", "area": "天心区", "street_id": "ebc97cf17952aff2e812e4d9", "detail": 1, "uid": "ebc97cf17952aff2e812e4d9"}, {"name": "文庙坪社区残疾人协会", "location": {"lat": 28.193015, "lng": 112.976245}, "address": "湖南省长沙市天心区湘江中路69号附近", "province": "湖南省", "city": "长沙市", "area": "天心区", "street_id": "f56cb18f103aa758e81e97a6", "detail": 1, "uid": "f56cb18f103aa758e81e97a6"}, {"name": "文庙坪社区流动人口和出租房屋管理服务中心", "location": {"lat": 28.193027, "lng": 112.976254}, "address": "湖南省长沙市天心区湘江中路69号附近", "province": "湖南省", "city": "长沙市", "area": "天心区", "street_id": "94f996d73fb213a46068585b", "detail": 1, "uid": "94f996d73fb213a46068585b"}, {"name": "文庙坪社区人民调解委员会", "location": {"lat": 28.193027, "lng": 112.976245}, "address": "湖南省长沙市天心区湘江中路69号附近", "province": "湖南省", "city": "长沙市", "area": "天心区", "street_id": "2a0851baa7acee2e2ce67bf7", "detail": 1, "uid": "2a0851baa7acee2e2ce67bf7"}, {"name": "环卫工作间", "location": {"lat": 28.190848, "lng": 112.976106}, "address": "湖南省长沙市天心区湘江中路306号", "province": "湖南省", "city": "长沙市", "area": "天心区", "street_id": "679079317593a6b25d17c313", "detail": 1, "uid": "679079317593a6b25d17c313"}, {"name": "长沙市星城司法鉴定中心", "location": {"lat": 28.189228, "lng": 112.979831}, "address": "书院路542", "province": "湖南省", "city": "长沙市", "area": "天心区", "street_id": "bf49cae65be3828715a190be", "detail": 1, "uid": "bf49cae65be3828715a190be"}, {"name": "中共坡子街街道坡子街社区支部委员会", "location": {"lat": 28.194981, "lng": 112.980391}, "address": "坡子街91号附近", "province": "湖南省", "city": "长沙市", "area": "天心区", "street_id": "7828d25ba8ec7039a8f729a2", "detail": 1, "uid": "7828d25ba8ec7039a8f729a2"}]