[{"name": "湖南省经济数学研究会", "location": {"lat": 28.186841, "lng": 112.949182}, "address": "麓山南路2号湖南大学", "province": "湖南省", "city": "长沙市", "area": "岳麓区", "street_id": "bfe589991d2d18e6882fb55b", "detail": 1, "uid": "bfe589991d2d18e6882fb55b"}, {"name": "湖南大学校友总会", "location": {"lat": 28.186514, "lng": 112.947347}, "address": "长沙市岳麓区湖南大学岳麓书院岳麓书院内", "province": "湖南省", "city": "长沙市", "area": "岳麓区", "detail": 1, "uid": "375d7d32e12393ba94f08cf6"}, {"name": "湖南省电工技术学会", "location": {"lat": 28.187467, "lng": 112.951814}, "address": "麓山南路2号湖南大学电气与信息工程学院附近", "province": "湖南省", "city": "长沙市", "area": "岳麓区", "street_id": "cef12c20e6c136c00ab93a47", "detail": 1, "uid": "cef12c20e6c136c00ab93a47"}, {"name": "近现代保护建筑", "location": {"lat": 28.185119, "lng": 112.950482}, "address": "湖南省长沙市岳麓区麓山南路2", "province": "湖南省", "city": "长沙市", "area": "岳麓区", "street_id": "8519c7b876bca26e49fd3f62", "detail": 1, "uid": "8519c7b876bca26e49fd3f62"}, {"name": "湖南大学-人口和计划生育管理处", "location": {"lat": 28.184589, "lng": 112.948165}, "address": "湖南省长沙市岳麓区登高路56号", "province": "湖南省", "city": "长沙市", "area": "岳麓区", "street_id": "adf72e8a40329c22882fb51b", "detail": 1, "uid": "adf72e8a40329c22882fb51b"}, {"name": "湖南大学-信息化建设与管理办公室", "location": {"lat": 28.184944, "lng": 112.951156}, "address": "麓山南路1号", "province": "湖南省", "city": "长沙市", "area": "岳麓区", "street_id": "98936e39cb562260c7f50dbc", "detail": 1, "uid": "98936e39cb562260c7f50dbc"}, {"name": "麻辣香锅(麓山景区店)", "location": {"lat": 28.184653, "lng": 112.949152}, "address": "大学城登高路8号", "province": "湖南省", "city": "长沙市", "area": "岳麓区", "street_id": "ab046ecf26c13251adb22ad4", "telephone": "13469430347", "detail": 1, "uid": "ab046ecf26c13251adb22ad4"}, {"name": "集贤宾馆-餐厅", "location": {"lat": 28.187634, "lng": 112.94867}, "address": "登高路", "province": "湖南省", "city": "长沙市", "area": "岳麓区", "street_id": "605341cfb25f52785d0d02f3", "telephone": "(0731)88822179", "detail": 1, "uid": "605341cfb25f52785d0d02f3"}, {"name": "杨裕兴(岳麓山店)", "location": {"lat": 28.184794, "lng": 112.948874}, "address": "湖南省长沙市岳麓区登高路22", "province": "湖南省", "city": "长沙市", "area": "岳麓区", "street_id": "b292b3aafd473a4fbf48429d", "telephone": "(0731)85455847", "detail": 1, "uid": "b292b3aafd473a4fbf48429d"}, {"name": "向群锅饺(麓山路店)", "location": {"lat": 28.184572, "lng": 112.948548}, "address": "登高路46号", "province": "湖南省", "city": "长沙市", "area": "岳麓区", "street_id": "0ed20a15aab4ed8e56bfffa0", "telephone": "(0731)85515583", "detail": 1, "uid": "0ed20a15aab4ed8e56bfffa0"}, {"name": "贵哥卤肉卷(岳麓山店)", "location": {"lat": 28.184513, "lng": 112.94901}, "address": "湖南省长沙市岳麓区登高路39", "province": "湖南省", "city": "长沙市", "area": "岳麓区", "street_id": "f31e1b49999c95734c3a59e6", "telephone": "13755100822", "detail": 1, "uid": "f31e1b49999c95734c3a59e6"}, {"name": "和记", "location": {"lat": 28.184586, "lng": 112.948721}, "address": "长沙市岳麓区登高路32号", "province": "湖南省", "city": "长沙市", "area": "岳麓区", "street_id": "31f9101b660193a027e0a0e2", "detail": 1, "uid": "31f9101b660193a027e0a0e2"}, {"name": "七妹餐厅", "location": {"lat": 28.188824, "lng": 112.951574}, "address": "湖南省长沙市岳麓区至善路", "province": "湖南省", "city": "长沙市", "area": "岳麓区", "street_id": "6ed2fe305ebf1bc8882fb5ae", "detail": 1, "uid": "6ed2fe305ebf1bc8882fb5ae"}, {"name": "盛世嚼味总店", "location": {"lat": 28.184523, "lng": 112.949031}, "address": "登高路19号(中国邮政银行旁)", "province": "湖南省", "city": "长沙市", "area": "岳麓区", "street_id": "f4de5c5a940d23510482c2e6", "detail": 1, "uid": "f4de5c5a940d23510482c2e6"}, {"name": "胖哥自助餐", "location": {"lat": 28.188761, "lng": 112.951381}, "address": "湖南省长沙市岳麓区至善路", "province": "湖南省", "city": "长沙市", "area": "岳麓区", "street_id": "3866f57428cc5d0db5147f6f", "telephone": "13054186513", "detail": 1, "uid": "3866f57428cc5d0db5147f6f"}, {"name": "梅菜花猪肉饼", "location": {"lat": 28.185012, "lng": 112.949382}, "address": "湖南省长沙市岳麓区登高路6号", "province": "湖南省", "city": "长沙市", "area": "岳麓区", "street_id": "13f3c34feb90c79d130daa05", "telephone": "18373759886", "detail": 1, "uid": "13f3c34feb90c79d130daa05"}, {"name": "乌煎道黑龙茶", "location": {"lat": 28.184737, "lng": 112.948969}, "address": "长沙市岳麓区登高路22号", "province": "湖南省", "city": "长沙市", "area": "岳麓区", "detail": 1, "uid": "3eca96e8eff2fe189e82eadf"}, {"name": "康螺记柳州螺丝粉", "location": {"lat": 28.18502, "lng": 112.94936}, "address": "湖南省长沙市岳麓区登高路4号", "province": "湖南省", "city": "长沙市", "area": "岳麓区", "street_id": "b91f3034da9e52e0f01937ee", "telephone": "15874288541", "detail": 1, "uid": "b91f3034da9e52e0f01937ee"}, {"name": "时华老长沙大香肠", "location": {"lat": 28.184588, "lng": 112.949169}, "address": "登高路", "province": "湖南省", "city": "长沙市", "area": "岳麓区", "street_id": "2ce9a0538f1b2c5940e1920a", "detail": 1, "uid": "2ce9a0538f1b2c5940e1920a"}, {"name": "红枫茶楼", "location": {"lat": 28.187095, "lng": 112.945379}, "address": "长沙市岳麓区登高路58号岳麓山国家重点风景名胜区内", "province": "湖南省", "city": "长沙市", "area": "岳麓区", "street_id": "52b04b03f6a70e3215c90516", "detail": 1, "uid": "52b04b03f6a70e3215c90516"}]