[{"name": "长沙市天心区新下河街棚户区改造项目征收指挥部", "location": {"lat": 28.198101, "lng": 112.977096}, "address": "湖南省长沙市天心区金线街汀兰雅苑东(BOBO国际西北)", "province": "湖南省", "city": "长沙市", "area": "天心区", "street_id": "91a54ced3e354fc0d6b74e8e", "detail": 1, "uid": "91a54ced3e354fc0d6b74e8e"}, {"name": "湖南省茶业协会", "location": {"lat": 28.198391, "lng": 112.97819}, "address": "五一大道599", "province": "湖南省", "city": "长沙市", "area": "天心区", "street_id": "a1e1655eef574fd84354d7f7", "detail": 1, "uid": "a1e1655eef574fd84354d7f7"}, {"name": "坡子街街道坡子街社区治安巡防站", "location": {"lat": 28.197078, "lng": 112.978587}, "address": "太平街与解放西路交叉口东南100米", "province": "湖南省", "city": "长沙市", "area": "天心区", "street_id": "2944afe976f5b9317c29bda3", "detail": 1, "uid": "2944afe976f5b9317c29bda3"}, {"name": "坡子街街道城区综合管理大队坡子街中队", "location": {"lat": 28.196328, "lng": 112.978117}, "address": "湖南省长沙市天心区福胜街3号附近", "province": "湖南省", "city": "长沙市", "area": "天心区", "street_id": "26ee2079aafd434a1df74d1b", "detail": 1, "uid": "26ee2079aafd434a1df74d1b"}, {"name": "长沙创投协会", "location": {"lat": 28.197912, "lng": 112.975774}, "address": "解放西路466汇源大厦5层", "province": "湖南省", "city": "长沙市", "area": "天心区", "street_id": "c6dcd608e4bdffdab4265531", "telephone": "(0731)88286890", "detail": 1, "uid": "c6dcd608e4bdffdab4265531"}, {"name": "水上消防中队", "location": {"lat": 28.198098, "lng": 112.975759}, "address": "解放西路口汇源大厦", "province": "湖南省", "city": "长沙市", "area": "天心区", "street_id": "68a59e0f65724c3817b54b10", "detail": 1, "uid": "68a59e0f65724c3817b54b10"}, {"name": "坡子街派出所坡子街警务室", "location": {"lat": 28.196849, "lng": 112.975944}, "address": "坡子街与湘江中路交叉口东北100米", "province": "湖南省", "city": "长沙市", "area": "天心区", "street_id": "d950966a4aa4073ff50e7754", "detail": 1, "uid": "d950966a4aa4073ff50e7754"}, {"name": "中国店子商务协会", "location": {"lat": 28.198345, "lng": 112.975664}, "address": "湘江中路二段18号江与城6楼", "province": "湖南省", "city": "长沙市", "area": "天心区", "street_id": "44c26075b8cb718a30621222", "detail": 1, "uid": "44c26075b8cb718a30621222"}, {"name": "天心区地方税务局第二税务分局", "location": {"lat": 28.196029, "lng": 112.978498}, "address": "坡子街128", "province": "湖南省", "city": "长沙市", "area": "天心区", "street_id": "a71714b69079bff45fbe86f7", "detail": 1, "uid": "a71714b69079bff45fbe86f7"}, {"name": "长沙市城南路国税局", "location": {"lat": 28.197669, "lng": 112.979691}, "address": "解放西路376号湘茶大厦3层", "province": "湖南省", "city": "长沙市", "area": "天心区", "street_id": "d146b38814e75add75026987", "detail": 1, "uid": "d146b38814e75add75026987"}, {"name": "天心区桥南工商所", "location": {"lat": 28.197672, "lng": 112.979691}, "address": "解放西路376号湘茶大厦6层", "province": "湖南省", "city": "长沙市", "area": "天心区", "street_id": "fc7675248e3634fa4e776e6b", "telephone": "(0731)84432425", "detail": 1, "uid": "fc7675248e3634fa4e776e6b"}, {"name": "坡子街派出所", "location": {"lat": 28.196434, "lng": 112.979249}, "address": "火后街14号", "province": "湖南省", "city": "长沙市", "area": "天心区", "street_id": "26603f62ba80b755a80dd817", "detail": 1, "uid": "26603f62ba80b755a80dd817"}, {"name": "长沙市太平历史文化街区管委会", "location": {"lat": 28.199776, "lng": 112.978282}, "address": "湖南省长沙市天心区太平街111号", "province": "湖南省", "city": "长沙市", "area": "天心区", "street_id": "da18a7b48e991c5a07026fb7", "detail": 1, "uid": "da18a7b48e991c5a07026fb7"}, {"name": "天心区中央文化景观区规划管理办公室", "location": {"lat": 28.199944, "lng": 112.978177}, "address": "太平街111号", "province": "湖南省", "city": "长沙市", "area": "天心区", "street_id": "b7e60b3aaab66c2ad4b74e9d", "detail": 1, "uid": "b7e60b3aaab66c2ad4b74e9d"}, {"name": "天心区文化遗产管理所", "location": {"lat": 28.200092, "lng": 112.978216}, "address": "长沙市天心区太平街153号", "province": "湖南省", "city": "长沙市", "area": "天心区", "street_id": "d6949d35ee747284c27da227", "detail": 1, "uid": "d6949d35ee747284c27da227"}, {"name": "长沙市工务局项目建设管理五部", "location": {"lat": 28.196144, "lng": 112.975253}, "address": "坡子街与湘江中路交叉口西南100米", "province": "湖南省", "city": "长沙市", "area": "天心区", "street_id": "a750efce9e16092fad080f93", "detail": 1, "uid": "a750efce9e16092fad080f93"}, {"name": "长沙恒隆资产经营有限公司直管公房拆迁指挥部", "location": {"lat": 28.195601, "lng": 112.979251}, "address": "坡子街与衣铺街交叉口南50米", "province": "湖南省", "city": "长沙市", "area": "天心区", "street_id": "987c272559882a26d813180e", "detail": 1, "uid": "987c272559882a26d813180e"}, {"name": "八角亭社区-劳动社区保障管理服务中心", "location": {"lat": 28.198242, "lng": 112.980612}, "address": "三兴街李富春故居附近", "province": "湖南省", "city": "长沙市", "area": "天心区", "street_id": "e929b240c4a66cd997031949", "detail": 1, "uid": "e929b240c4a66cd997031949"}, {"name": "坡子街派出所西牌楼警务室", "location": {"lat": 28.199308, "lng": 112.980266}, "address": "三兴街与药王街交叉口西50米", "province": "湖南省", "city": "长沙市", "area": "天心区", "street_id": "42a499ee4aac536094ec8487", "detail": 1, "uid": "42a499ee4aac536094ec8487"}, {"name": "沿江风光带玉城南段管理办公室", "location": {"lat": 28.195411, "lng": 112.975136}, "address": "湖南省长沙市天心区半湘街54号", "province": "湖南省", "city": "长沙市", "area": "天心区", "street_id": "9d5a5770422719bf725e8052", "detail": 1, "uid": "9d5a5770422719bf725e8052"}]