[{"name": "湖南省计算机学会", "location": {"lat": 28.180824, "lng": 112.952137}, "address": "湖南省长沙市岳麓区麓山南路116号", "province": "湖南省", "city": "长沙市", "area": "岳麓区", "street_id": "3defc3617129097088f15d22", "detail": 1, "uid": "3defc3617129097088f15d22"}, {"name": "湖南大学-计生协", "location": {"lat": 28.182874, "lng": 112.950312}, "address": "麓山南路2号湖南大学", "province": "湖南省", "city": "长沙市", "area": "岳麓区", "street_id": "ad725b7d300b72e8283a9fe0", "detail": 1, "uid": "ad725b7d300b72e8283a9fe0"}, {"name": "湖南省给水排水实验室", "location": {"lat": 28.182803, "lng": 112.95329}, "address": "湖南省长沙市岳麓区麓山南路", "province": "湖南省", "city": "长沙市", "area": "岳麓区", "street_id": "d7ac7a9620729a67aecb662f", "detail": 1, "uid": "d7ac7a9620729a67aecb662f"}, {"name": "会南北南北汇聚", "location": {"lat": 28.180344, "lng": 112.951704}, "address": "麓山南路162号(湖南大学信息科学学院斜对面)", "province": "湖南省", "city": "长沙市", "area": "岳麓区", "street_id": "05bef15078abdfe6d0ff2311", "telephone": "15574900234", "detail": 1, "uid": "05bef15078abdfe6d0ff2311"}, {"name": "湘食香滋", "location": {"lat": 28.17943, "lng": 112.95164}, "address": "麓山南路228号渔湾市公交站旁", "province": "湖南省", "city": "长沙市", "area": "岳麓区", "street_id": "705fcdc8115e90e69f09f76c", "telephone": "18508439939", "detail": 1, "uid": "705fcdc8115e90e69f09f76c"}, {"name": "巴蜀石锅鱼(有鱼石锅小厨)", "location": {"lat": 28.177422, "lng": 112.950863}, "address": "麓山南路326号", "province": "湖南省", "city": "长沙市", "area": "岳麓区", "street_id": "9c02a731a50225980482c215", "telephone": "(0731)88035667,15116162708", "detail": 1, "uid": "480b24d0701110e89dec2be3"}, {"name": "微萨披萨(麓山南路店)", "location": {"lat": 28.178273, "lng": 112.951353}, "address": "麓山南路260号", "province": "湖南省", "city": "长沙市", "area": "岳麓区", "street_id": "09ff5adc38e97c9031870ac8", "telephone": "15111145382", "detail": 1, "uid": "0e7a05a1d1f1d3afa11de955"}, {"name": "致尚餐厅", "location": {"lat": 28.178028, "lng": 112.951127}, "address": "麓山南路282号2楼", "province": "湖南省", "city": "长沙市", "area": "岳麓区", "street_id": "dcb1c6a802945edac6effb5b", "telephone": "(0731)89706009", "detail": 1, "uid": "dcb1c6a802945edac6effb5b"}, {"name": "鱼当家", "location": {"lat": 28.177803, "lng": 112.950943}, "address": "桔子洲街道麓山南路298号", "province": "湖南省", "city": "长沙市", "area": "岳麓区", "street_id": "60068f9bbbed0a32d418b7c3", "telephone": "18707488821", "detail": 1, "uid": "60068f9bbbed0a32d418b7c3"}, {"name": "筷乐食光", "location": {"lat": 28.179465, "lng": 112.951635}, "address": "桔子洲街道麓山南路212号二楼", "province": "湖南省", "city": "长沙市", "area": "岳麓区", "street_id": "10c7bc62a1df90da8c1a8937", "telephone": "13212615159", "detail": 1, "uid": "10c7bc62a1df90da8c1a8937"}, {"name": "青年餐厅(麓山南路店)", "location": {"lat": 28.18065, "lng": 112.95163}, "address": "麓山南路152号（近渔湾市）", "province": "湖南省", "city": "长沙市", "area": "岳麓区", "street_id": "5ce2637da8a05048ae31e512", "telephone": "18607315631", "detail": 1, "uid": "5ce2637da8a05048ae31e512"}, {"name": "猫屿", "location": {"lat": 28.177199, "lng": 112.950957}, "address": "桔子洲街道麓山南路330号", "province": "湖南省", "city": "长沙市", "area": "岳麓区", "street_id": "1b0f143891d63855364aae2e", "telephone": "15116259113", "detail": 1, "uid": "1b0f143891d63855364aae2e"}, {"name": "十味烤全鱼", "location": {"lat": 28.18095, "lng": 112.951571}, "address": "麓山南路128-1号(湖南大学计算机与工程学院正对面)", "province": "湖南省", "city": "长沙市", "area": "岳麓区", "street_id": "b31ccba73f2586a086420e7c", "telephone": "13787259268", "detail": 1, "uid": "b31ccba73f2586a086420e7c"}, {"name": "仙豆糕", "location": {"lat": 28.179398, "lng": 112.951738}, "address": "湖南省长沙市岳麓区麓山南路222号", "province": "湖南省", "city": "长沙市", "area": "岳麓区", "telephone": "18627275117", "detail": 1, "uid": "d02abc33825c37040f0a7032"}, {"name": "老头子糖油粑粑", "location": {"lat": 28.179789, "lng": 112.951848}, "address": "麓山南路202号（近湖南大学）", "province": "湖南省", "city": "长沙市", "area": "岳麓区", "street_id": "cac5fc76a94b84ea2cb96d48", "detail": 1, "uid": "cac5fc76a94b84ea2cb96d48"}, {"name": "梅干菜扣肉饼", "location": {"lat": 28.176885, "lng": 112.950685}, "address": "长沙岳麓区麓山南路368号(近天马学生公寓)", "province": "湖南省", "city": "长沙市", "area": "岳麓区", "street_id": "eb36750391a9a50200ec011f", "telephone": "13342196995", "detail": 1, "uid": "eb36750391a9a50200ec011f"}, {"name": "臭名远扬臭豆腐(麓山南路店)", "location": {"lat": 28.176905, "lng": 112.950695}, "address": "岳麓区麓山南路364号(阜埠河路口)", "province": "湖南省", "city": "长沙市", "area": "岳麓区", "street_id": "3a0a78bda8429ee363180906", "telephone": "13908474653", "detail": 1, "uid": "3a0a78bda8429ee363180906"}, {"name": "李记沙县小吃", "location": {"lat": 28.177474, "lng": 112.950924}, "address": "麓山南路314号", "province": "湖南省", "city": "长沙市", "area": "岳麓区", "street_id": "6b095d4fe9b9c993f4eafc47", "telephone": "18397351751", "detail": 1, "uid": "6b095d4fe9b9c993f4eafc47"}, {"name": "云南砂锅米线", "location": {"lat": 28.181184, "lng": 112.951388}, "address": "麓山南路104号景湘吃串门楼下", "province": "湖南省", "city": "长沙市", "area": "岳麓区", "street_id": "6348c563cbb5cb99047ce86f", "telephone": "15988552573", "detail": 1, "uid": "6348c563cbb5cb99047ce86f"}, {"name": "广东肠粉店", "location": {"lat": 28.177908, "lng": 112.951097}, "address": "湖南省长沙市岳麓区麓山南路286号", "province": "湖南省", "city": "长沙市", "area": "岳麓区", "street_id": "290748a72f9449ba94031906", "detail": 1, "uid": "290748a72f9449ba94031906"}]