[{"name": "中南大学信息科学与工程学院-离退休工作办公室", "location": {"lat": 28.176655, "lng": 112.93669}, "address": "升华大道与清水路交叉口西200米", "province": "湖南省", "city": "长沙市", "area": "岳麓区", "street_id": "9604848b902f26cf31f71d65", "detail": 1, "uid": "9604848b902f26cf31f71d65"}, {"name": "中南大学信息科学与工程学院老龄工作委员会", "location": {"lat": 28.176655, "lng": 112.93669}, "address": "升华大道与清水路交叉口西200米", "province": "湖南省", "city": "长沙市", "area": "岳麓区", "street_id": "7aa8f8c4e6834807e9f85385", "detail": 1, "uid": "7aa8f8c4e6834807e9f85385"}, {"name": "中国有色金属学会计算机学术委员会", "location": {"lat": 28.176868, "lng": 112.936927}, "address": "湖南省长沙市岳麓区中南大学信息科学与工程学院", "province": "湖南省", "city": "长沙市", "area": "岳麓区", "street_id": "9a8f69536dea92ece011039a", "detail": 1, "uid": "9a8f69536dea92ece011039a"}, {"name": "湖南省学生体育协会龙狮分会", "location": {"lat": 28.173762, "lng": 112.935174}, "address": "麓山南路中南大学内", "province": "湖南省", "city": "长沙市", "area": "岳麓区", "street_id": "d103a0de689f7991eedfcacb", "detail": 1, "uid": "cbbec75ab0e9625cb8bd6340"}, {"name": "中国大学生龙狮锦标赛组委会", "location": {"lat": 28.173732, "lng": 112.934792}, "address": "麓山南路中南大学内", "province": "湖南省", "city": "长沙市", "area": "岳麓区", "street_id": "5715668557d689a73686f419", "detail": 1, "uid": "5715668557d689a73686f419"}, {"name": "中南大学-资产管理处", "location": {"lat": 28.17785, "lng": 112.937536}, "address": "湖南省长沙市岳麓区新民路", "province": "湖南省", "city": "长沙市", "area": "岳麓区", "street_id": "7f7db029f68050a39e82ea97", "detail": 1, "uid": "7f7db029f68050a39e82ea97"}, {"name": "共青团中南大学委员会", "location": {"lat": 28.177831, "lng": 112.937628}, "address": "麓山南路中南大学研究生院附近", "province": "湖南省", "city": "长沙市", "area": "岳麓区", "street_id": "fc6bd08971f581928d7727f6", "detail": 1, "uid": "fc6bd08971f581928d7727f6"}, {"name": "中南大学北校区资产与实验室管理处", "location": {"lat": 28.177857, "lng": 112.93765}, "address": "麓山南路932号中南大学北校区", "province": "湖南省", "city": "长沙市", "area": "岳麓区", "detail": 1, "uid": "45c085a12220fb7ec0364443"}, {"name": "中国有色金属学会矿山信息化智能化专业委员会", "location": {"lat": 28.173061, "lng": 112.936167}, "address": "湖南省长沙市岳麓区中南大学资源与安全工程学院", "province": "湖南省", "city": "长沙市", "area": "岳麓区", "street_id": "4306efef081d7a0a22f01701", "detail": 1, "uid": "4306efef081d7a0a22f01701"}, {"name": "中国岩石力学与工程学会岩石破碎工程专业委员会", "location": {"lat": 28.173061, "lng": 112.936167}, "address": "湖南省长沙市岳麓区中南大学资源与安全工程学院", "province": "湖南省", "city": "长沙市", "area": "岳麓区", "street_id": "822292f8aaa625d80682c2d0", "detail": 1, "uid": "822292f8aaa625d80682c2d0"}, {"name": "湖南省学位与研究生教育学会", "location": {"lat": 28.177867, "lng": 112.937828}, "address": "麓山南路中南大学", "province": "湖南省", "city": "长沙市", "area": "岳麓区", "street_id": "7004bf33bcb833282ce67b18", "detail": 1, "uid": "7004bf33bcb833282ce67b18"}, {"name": "中南大学离退休工作处", "location": {"lat": 28.17283, "lng": 112.936564}, "address": "麓山南路中南大学", "province": "湖南省", "city": "长沙市", "area": "岳麓区", "street_id": "0694b13d00e0ad177adbd2b7", "detail": 1, "uid": "0694b13d00e0ad177adbd2b7"}, {"name": "中国教育工会中南大学委员会", "location": {"lat": 28.174141, "lng": 112.938868}, "address": "麓山南路932附近", "province": "湖南省", "city": "长沙市", "area": "岳麓区", "street_id": "67900412bb9c57da0b1cc745", "detail": 1, "uid": "67900412bb9c57da0b1cc745"}, {"name": "中南大学-教职工文体协会", "location": {"lat": 28.173828, "lng": 112.938809}, "address": "中南大学六食堂后侧附近", "province": "湖南省", "city": "长沙市", "area": "岳麓区", "street_id": "7258d83500ed416f6c3e1be3", "detail": 1, "uid": "7258d83500ed416f6c3e1be3"}, {"name": "长沙市岳麓区岳麓街道云麓园社区居委会", "location": {"lat": 28.173704, "lng": 112.938944}, "address": "岳麓街道麓山南路932号甘棠", "province": "湖南省", "city": "长沙市", "area": "岳麓区", "street_id": "c80252c335b8af5c3fe2319b", "detail": 1, "uid": "c80252c335b8af5c3fe2319b"}, {"name": "中南大学-学生平安健康保险服务办公室", "location": {"lat": 28.173704, "lng": 112.938944}, "address": "湖南省长沙市岳麓区中南大学六食堂后侧附近", "province": "湖南省", "city": "长沙市", "area": "岳麓区", "street_id": "38b215cb260ef2fc1ff74dc4", "detail": 1, "uid": "38b215cb260ef2fc1ff74dc4"}, {"name": "中南大学-教代会专门委员会", "location": {"lat": 28.173704, "lng": 112.938944}, "address": "麓山南路932号中南大学北校区", "province": "湖南省", "city": "长沙市", "area": "岳麓区", "street_id": "149fdaf515f93bf9ce04effe", "detail": 1, "uid": "149fdaf515f93bf9ce04effe"}, {"name": "住房保障中心", "location": {"lat": 28.173704, "lng": 112.938944}, "address": "湖南省长沙市岳麓区清水路", "province": "湖南省", "city": "长沙市", "area": "岳麓区", "street_id": "9bd9b9189322f66d1fe99947", "detail": 1, "uid": "9bd9b9189322f66d1fe99947"}, {"name": "中南大学-房产管理处", "location": {"lat": 28.173704, "lng": 112.938944}, "address": "湖南省长沙市岳麓区麓山南路932附近", "province": "湖南省", "city": "长沙市", "area": "岳麓区", "street_id": "5ce0577b5a087d9dbea240de", "detail": 1, "uid": "5ce0577b5a087d9dbea240de"}, {"name": "中南大学-计划生育管理办公室", "location": {"lat": 28.173246, "lng": 112.938932}, "address": "湖南省长沙市岳麓区中南大学高家坪住宅新区", "province": "湖南省", "city": "长沙市", "area": "岳麓区", "street_id": "91c6152301541396077ce8fa", "detail": 1, "uid": "91c6152301541396077ce8fa"}]