[{"name": "长沙市岳麓区岳麓街道麓山南路社区居委会", "location": {"lat": 28.171279, "lng": 112.941874}, "address": "麓山南路790", "province": "湖南省", "city": "长沙市", "area": "岳麓区", "street_id": "762e2095938eddf788b98829", "detail": 1, "uid": "762e2095938eddf788b98829"}, {"name": "岳麓街道麓山南路社区民兵营", "location": {"lat": 28.171279, "lng": 112.941874}, "address": "湖南省长沙市岳麓区麓山南路778号附近", "province": "湖南省", "city": "长沙市", "area": "岳麓区", "street_id": "4de11e7eb658fd8e3be4a6fc", "detail": 1, "uid": "4de11e7eb658fd8e3be4a6fc"}, {"name": "岳麓街道麓山南路社区-人力资源和社会保障服务中心", "location": {"lat": 28.171279, "lng": 112.941874}, "address": "湖南省长沙市岳麓区麓山南路790号附近", "province": "湖南省", "city": "长沙市", "area": "岳麓区", "street_id": "a201c1da15dd03b57f29bdc2", "detail": 1, "uid": "a201c1da15dd03b57f29bdc2"}, {"name": "岳麓派出所麓山南路社区警务室", "location": {"lat": 28.171279, "lng": 112.941874}, "address": "麓山南路790号", "province": "湖南省", "city": "长沙市", "area": "岳麓区", "street_id": "b702a03844f7d96bc2f1cfdf", "detail": 1, "uid": "b702a03844f7d96bc2f1cfdf"}, {"name": "中共长沙市岳麓区岳麓街道麓山南路社区支部委员会", "location": {"lat": 28.171309, "lng": 112.941896}, "address": "麓山南路796号附近", "province": "湖南省", "city": "长沙市", "area": "岳麓区", "street_id": "f08b50b208fe9fc871455b4c", "detail": 1, "uid": "f08b50b208fe9fc871455b4c"}, {"name": "岳麓街道治安执勤室", "location": {"lat": 28.172136, "lng": 112.941399}, "address": "新棠巷6号附近", "province": "湖南省", "city": "长沙市", "area": "岳麓区", "detail": 1, "uid": "0b6529b169c882258f55ec69"}, {"name": "岳麓区社会矛盾调处中心(南片分中心)", "location": {"lat": 28.171557, "lng": 112.943276}, "address": "岳麓区麓山南路744号(中南大学南校区北大门对面)", "province": "湖南省", "city": "长沙市", "area": "岳麓区", "street_id": "3ee8f363153e29a6ac080f9c", "detail": 1, "uid": "3ee8f363153e29a6ac080f9c"}, {"name": "湖南艺术职业学院-国家职业技能鉴定所", "location": {"lat": 28.172466, "lng": 112.943706}, "address": "湖南省长沙市岳麓区麓山南路湖南艺术职业学院实验剧院", "province": "湖南省", "city": "长沙市", "area": "岳麓区", "street_id": "d92d575b2d992996a80dd83a", "detail": 1, "uid": "d92d575b2d992996a80dd83a"}, {"name": "中南大学委员会党校", "location": {"lat": 28.168537, "lng": 112.94396}, "address": "湖南省长沙市岳麓区中南大学南校区中南大学社会主义学院", "province": "湖南省", "city": "长沙市", "area": "岳麓区", "street_id": "5b6dea3995838274b5f42fd7", "detail": 1, "uid": "5b6dea3995838274b5f42fd7"}, {"name": "长沙市公安局岳麓派出所新棠村社区警务室", "location": {"lat": 28.171369, "lng": 112.944764}, "address": "师南路与麓山南路交叉口西南150米", "province": "湖南省", "city": "长沙市", "area": "岳麓区", "street_id": "f346982f79ba89e1e507389e", "detail": 1, "uid": "f346982f79ba89e1e507389e"}, {"name": "中南大学-计划生育管理办公室", "location": {"lat": 28.173246, "lng": 112.938932}, "address": "湖南省长沙市岳麓区中南大学高家坪住宅新区", "province": "湖南省", "city": "长沙市", "area": "岳麓区", "street_id": "91c6152301541396077ce8fa", "detail": 1, "uid": "91c6152301541396077ce8fa"}, {"name": "世家小面", "location": {"lat": 28.170543, "lng": 112.941381}, "address": "岳麓街道麓山南路697号悦购广场-1楼LG2016-2018号", "province": "湖南省", "city": "长沙市", "area": "岳麓区", "street_id": "3cef63827947fc5cb54f540b", "telephone": "15111277366,18108474480", "detail": 1, "uid": "3cef63827947fc5cb54f540b"}, {"name": "新芙蓉(麓山南路店)", "location": {"lat": 28.171501, "lng": 112.944445}, "address": "长沙市岳麓区麓山南路525号左家垅公交站交通银行旁湖南艺校对面(湖南师范大学美术学院)", "province": "湖南省", "city": "长沙市", "area": "岳麓区", "street_id": "bd760af7284cb16ebe484285", "telephone": "(0731)89727229,15874270627", "detail": 1, "uid": "eac97289c10efcf96fa3cc63"}, {"name": "老街口老北京涮羊肉(中南店)", "location": {"lat": 28.171159, "lng": 112.942865}, "address": "麓山南路悦购广场2楼", "province": "湖南省", "city": "长沙市", "area": "岳麓区", "street_id": "2bcba0c87ca7b837a2acc4aa", "telephone": "13707487296", "detail": 1, "uid": "1d665afc5eaa789b4251c00b"}, {"name": "烤尚宫自助烤肉火锅(岳麓店)", "location": {"lat": 28.171713, "lng": 112.943701}, "address": "麓山南路702号2楼(左家陇西公交车站附近)", "province": "湖南省", "city": "长沙市", "area": "岳麓区", "street_id": "6dddf2f0691acac7e9f85305", "detail": 1, "uid": "6dddf2f0691acac7e9f85305"}, {"name": "上厨", "location": {"lat": 28.170889, "lng": 112.941091}, "address": "湖南省长沙市岳麓区麓山南路858", "province": "湖南省", "city": "长沙市", "area": "岳麓区", "street_id": "25319d8b698716114d776e45", "telephone": "(0731)85214158", "detail": 1, "uid": "25319d8b698716114d776e45"}, {"name": "北京烤鸭(中南店)", "location": {"lat": 28.170092, "lng": 112.939321}, "address": "麓山南路791号", "province": "湖南省", "city": "长沙市", "area": "岳麓区", "street_id": "c2caebc4f2764a4f43e19225", "telephone": "(0731)82667355", "detail": 1, "uid": "c2caebc4f2764a4f43e19225"}, {"name": "小熊家烤鱼", "location": {"lat": 28.171518, "lng": 112.942736}, "address": "麓山南路742号(中南大学南校区大门对面2楼)", "province": "湖南省", "city": "长沙市", "area": "岳麓区", "street_id": "f8c57a312a682e1c8bdb734f", "telephone": "18025308719", "detail": 1, "uid": "f8c57a312a682e1c8bdb734f"}, {"name": "勿忘初心", "location": {"lat": 28.171224, "lng": 112.942096}, "address": "麓山南路774", "province": "湖南省", "city": "长沙市", "area": "岳麓区", "street_id": "9f1cd7b62bc00c917ab55c47", "telephone": "18229965142", "detail": 1, "uid": "9f1cd7b62bc00c917ab55c47"}, {"name": "御记煌三汁焖锅(中南店)", "location": {"lat": 28.170553, "lng": 112.941522}, "address": "麓山南路697号悦购广场2楼美食城(近中南大学)", "province": "湖南省", "city": "长沙市", "area": "岳麓区", "street_id": "7c6ce7b60bd7075402294f9d", "telephone": "(0731)85350341", "detail": 1, "uid": "7c6ce7b60bd7075402294f9d"}]