[{"name": "湖南大学校友总会", "location": {"lat": 28.186514, "lng": 112.947347}, "address": "长沙市岳麓区湖南大学岳麓书院岳麓书院内", "province": "湖南省", "city": "长沙市", "area": "岳麓区", "detail": 1, "uid": "375d7d32e12393ba94f08cf6"}, {"name": "长沙市岳麓山派出所", "location": {"lat": 28.185221, "lng": 112.944032}, "address": "湖南省长沙市岳麓区麓山南路岳麓分局", "province": "湖南省", "city": "长沙市", "area": "岳麓区", "street_id": "8102376a19c1acc6ab059d90", "detail": 1, "uid": "8102376a19c1acc6ab059d90"}, {"name": "长沙市岳麓山风景名胜区综合执法队麓山景区执勤室", "location": {"lat": 28.185082, "lng": 112.94395}, "address": "长沙市岳麓区登高路58号岳麓山国家重点风景名胜区内", "province": "湖南省", "city": "长沙市", "area": "岳麓区", "detail": 1, "uid": "0ddad4e4335e75459cf779c2"}, {"name": "长沙市公安局岳麓分局第二治安管理大队执勤室", "location": {"lat": 28.185081, "lng": 112.943897}, "address": "长沙市岳麓区", "province": "湖南省", "city": "长沙市", "area": "岳麓区", "street_id": "93139fbe804357ff4e776e9b", "detail": 1, "uid": "93139fbe804357ff4e776e9b"}, {"name": "长沙市旅游区(点)协会", "location": {"lat": 28.184911, "lng": 112.943981}, "address": "湖南省长沙市岳麓区麓山南路岳麓山派出所附近", "province": "湖南省", "city": "长沙市", "area": "岳麓区", "street_id": "190c81d0e9c1bd9ecf06a476", "detail": 1, "uid": "190c81d0e9c1bd9ecf06a476"}, {"name": "湖南岳麓山风景名胜区管理处", "location": {"lat": 28.18493, "lng": 112.943852}, "address": "长沙市岳麓区登高路58号岳麓山国家重点风景名胜区内", "province": "湖南省", "city": "长沙市", "area": "岳麓区", "street_id": "0ea1d2e324f2489715a19082", "detail": 1, "uid": "0ea1d2e324f2489715a19082"}, {"name": "抗战指挥所(原湖南省会警察纪念堂)", "location": {"lat": 28.185259, "lng": 112.942299}, "address": "长沙市岳麓区麓山路82号岳麓山风景名胜区", "province": "湖南省", "city": "长沙市", "area": "岳麓区", "street_id": "61284be2b8f664b0ca09f061", "detail": 1, "uid": "61284be2b8f664b0ca09f061"}, {"name": "湖南大学-人口和计划生育管理处", "location": {"lat": 28.184589, "lng": 112.948165}, "address": "湖南省长沙市岳麓区登高路56号", "province": "湖南省", "city": "长沙市", "area": "岳麓区", "street_id": "adf72e8a40329c22882fb51b", "detail": 1, "uid": "adf72e8a40329c22882fb51b"}, {"name": "长沙市公安局交通警察支队岳麓大队四中队(登高路)", "location": {"lat": 28.18423, "lng": 112.948245}, "address": "长沙市岳麓区登高路55号附近", "province": "湖南省", "city": "长沙市", "area": "岳麓区", "street_id": "227081c3d4d29115b23c81b2", "detail": 1, "uid": "a953a223096404584c3a5988"}, {"name": "长沙市地震局", "location": {"lat": 28.183586, "lng": 112.947594}, "address": "湖南省长沙市岳麓区登高路58号湖大附中左侧", "province": "湖南省", "city": "长沙市", "area": "岳麓区", "street_id": "2cc3c8e887ce48a84d2fdfe2", "detail": 1, "uid": "2cc3c8e887ce48a84d2fdfe2"}, {"name": "润泽天餐厅", "location": {"lat": 28.184587, "lng": 112.944185}, "address": "长沙市岳麓区长沙岳麓区登高路58号(近岳麓山风景名胜区管理处)", "province": "湖南省", "city": "长沙市", "area": "岳麓区", "street_id": "dbf8b0364d145ec4ddee8b10", "telephone": "(0731)88625797", "detail": 1, "uid": "dbf8b0364d145ec4ddee8b10"}, {"name": "集贤宾馆-餐厅", "location": {"lat": 28.187634, "lng": 112.94867}, "address": "登高路", "province": "湖南省", "city": "长沙市", "area": "岳麓区", "street_id": "605341cfb25f52785d0d02f3", "telephone": "(0731)88822179", "detail": 1, "uid": "605341cfb25f52785d0d02f3"}, {"name": "向群锅饺(麓山路店)", "location": {"lat": 28.184572, "lng": 112.948548}, "address": "登高路46号", "province": "湖南省", "city": "长沙市", "area": "岳麓区", "street_id": "0ed20a15aab4ed8e56bfffa0", "telephone": "(0731)85515583", "detail": 1, "uid": "0ed20a15aab4ed8e56bfffa0"}, {"name": "如愿茶坊", "location": {"lat": 28.189172, "lng": 112.944744}, "address": "长沙市岳麓区岳麓山南门爱晚亭右上500米能量谷内(爱晚亭)", "province": "湖南省", "city": "长沙市", "area": "岳麓区", "street_id": "5a465bf52e1c1813f21937e3", "telephone": "(0731)85311033", "detail": 1, "uid": "5a465bf52e1c1813f21937e3"}, {"name": "红枫茶楼", "location": {"lat": 28.187095, "lng": 112.945379}, "address": "长沙市岳麓区登高路58号岳麓山国家重点风景名胜区内", "province": "湖南省", "city": "长沙市", "area": "岳麓区", "street_id": "52b04b03f6a70e3215c90516", "detail": 1, "uid": "52b04b03f6a70e3215c90516"}, {"name": "王某某特色小吃", "location": {"lat": 28.185432, "lng": 112.945666}, "address": "桔子洲街道登高56号1楼", "province": "湖南省", "city": "长沙市", "area": "岳麓区", "telephone": "13975825530", "detail": 1, "uid": "38945c2effaaa5ce3be4a6cb"}, {"name": "清风泉", "location": {"lat": 28.186966, "lng": 112.943035}, "address": "登高路58号", "province": "湖南省", "city": "长沙市", "area": "岳麓区", "street_id": "5bd0a5db44361d17afee7a00", "detail": 1, "uid": "5bd0a5db44361d17afee7a00"}, {"name": "地瓜熟了地瓜坊(岳麓山店)", "location": {"lat": 28.184664, "lng": 112.948622}, "address": "登高路(近东方红广场)", "province": "湖南省", "city": "长沙市", "area": "岳麓区", "street_id": "94f769169cc14aa8c8213d05", "detail": 1, "uid": "94f769169cc14aa8c8213d05"}, {"name": "湖大面包房", "location": {"lat": 28.184571, "lng": 112.948589}, "address": "登高路44号", "province": "湖南省", "city": "长沙市", "area": "岳麓区", "street_id": "8eb48fa132dd56bff22d839e", "telephone": "18670734621", "detail": 1, "uid": "8eb48fa132dd56bff22d839e"}, {"name": "岳麓书院-茶室", "location": {"lat": 28.186123, "lng": 112.946854}, "address": "长沙市岳麓区麓山路273号岳麓书院内", "province": "湖南省", "city": "长沙市", "area": "岳麓区", "street_id": "68c11de07f1cabd54d776e3e", "detail": 1, "uid": "68c11de07f1cabd54d776e3e"}]