[{"name": "中南大学离退休工作处", "location": {"lat": 28.17283, "lng": 112.936564}, "address": "麓山南路中南大学", "province": "湖南省", "city": "长沙市", "area": "岳麓区", "street_id": "0694b13d00e0ad177adbd2b7", "detail": 1, "uid": "0694b13d00e0ad177adbd2b7"}, {"name": "中国有色金属学会矿山信息化智能化专业委员会", "location": {"lat": 28.173061, "lng": 112.936167}, "address": "湖南省长沙市岳麓区中南大学资源与安全工程学院", "province": "湖南省", "city": "长沙市", "area": "岳麓区", "street_id": "4306efef081d7a0a22f01701", "detail": 1, "uid": "4306efef081d7a0a22f01701"}, {"name": "中国岩石力学与工程学会岩石破碎工程专业委员会", "location": {"lat": 28.173061, "lng": 112.936167}, "address": "湖南省长沙市岳麓区中南大学资源与安全工程学院", "province": "湖南省", "city": "长沙市", "area": "岳麓区", "street_id": "822292f8aaa625d80682c2d0", "detail": 1, "uid": "822292f8aaa625d80682c2d0"}, {"name": "中南大学-计划生育管理办公室", "location": {"lat": 28.173246, "lng": 112.938932}, "address": "湖南省长沙市岳麓区中南大学高家坪住宅新区", "province": "湖南省", "city": "长沙市", "area": "岳麓区", "street_id": "91c6152301541396077ce8fa", "detail": 1, "uid": "91c6152301541396077ce8fa"}, {"name": "长沙市岳麓区岳麓街道云麓园社区居委会", "location": {"lat": 28.173704, "lng": 112.938944}, "address": "岳麓街道麓山南路932号甘棠", "province": "湖南省", "city": "长沙市", "area": "岳麓区", "street_id": "c80252c335b8af5c3fe2319b", "detail": 1, "uid": "c80252c335b8af5c3fe2319b"}, {"name": "中南大学-学生平安健康保险服务办公室", "location": {"lat": 28.173704, "lng": 112.938944}, "address": "湖南省长沙市岳麓区中南大学六食堂后侧附近", "province": "湖南省", "city": "长沙市", "area": "岳麓区", "street_id": "38b215cb260ef2fc1ff74dc4", "detail": 1, "uid": "38b215cb260ef2fc1ff74dc4"}, {"name": "中南大学-教代会专门委员会", "location": {"lat": 28.173704, "lng": 112.938944}, "address": "麓山南路932号中南大学北校区", "province": "湖南省", "city": "长沙市", "area": "岳麓区", "street_id": "149fdaf515f93bf9ce04effe", "detail": 1, "uid": "149fdaf515f93bf9ce04effe"}, {"name": "住房保障中心", "location": {"lat": 28.173704, "lng": 112.938944}, "address": "湖南省长沙市岳麓区清水路", "province": "湖南省", "city": "长沙市", "area": "岳麓区", "street_id": "9bd9b9189322f66d1fe99947", "detail": 1, "uid": "9bd9b9189322f66d1fe99947"}, {"name": "中南大学-房产管理处", "location": {"lat": 28.173704, "lng": 112.938944}, "address": "湖南省长沙市岳麓区麓山南路932附近", "province": "湖南省", "city": "长沙市", "area": "岳麓区", "street_id": "5ce0577b5a087d9dbea240de", "detail": 1, "uid": "5ce0577b5a087d9dbea240de"}, {"name": "中南大学-教职工文体协会", "location": {"lat": 28.173828, "lng": 112.938809}, "address": "中南大学六食堂后侧附近", "province": "湖南省", "city": "长沙市", "area": "岳麓区", "street_id": "7258d83500ed416f6c3e1be3", "detail": 1, "uid": "7258d83500ed416f6c3e1be3"}, {"name": "中国教育工会中南大学委员会", "location": {"lat": 28.174141, "lng": 112.938868}, "address": "麓山南路932附近", "province": "湖南省", "city": "长沙市", "area": "岳麓区", "street_id": "67900412bb9c57da0b1cc745", "detail": 1, "uid": "67900412bb9c57da0b1cc745"}, {"name": "湖南省学生体育协会龙狮分会", "location": {"lat": 28.173762, "lng": 112.935174}, "address": "麓山南路中南大学内", "province": "湖南省", "city": "长沙市", "area": "岳麓区", "street_id": "d103a0de689f7991eedfcacb", "detail": 1, "uid": "cbbec75ab0e9625cb8bd6340"}, {"name": "中国大学生龙狮锦标赛组委会", "location": {"lat": 28.173732, "lng": 112.934792}, "address": "麓山南路中南大学内", "province": "湖南省", "city": "长沙市", "area": "岳麓区", "street_id": "5715668557d689a73686f419", "detail": 1, "uid": "5715668557d689a73686f419"}, {"name": "长沙矿冶研究院-资源所", "location": {"lat": 28.169575, "lng": 112.937657}, "address": "湖南省长沙市岳麓区麓山南路966号", "province": "湖南省", "city": "长沙市", "area": "岳麓区", "street_id": "509bb1ebd1cc4572ae080fcc", "detail": 1, "uid": "509bb1ebd1cc4572ae080fcc"}, {"name": "北京烤鸭(中南店)", "location": {"lat": 28.170092, "lng": 112.939321}, "address": "麓山南路791号", "province": "湖南省", "city": "长沙市", "area": "岳麓区", "street_id": "c2caebc4f2764a4f43e19225", "telephone": "(0731)82667355", "detail": 1, "uid": "c2caebc4f2764a4f43e19225"}, {"name": "川传串串串火锅店(长沙分店)", "location": {"lat": 28.170186, "lng": 112.940156}, "address": "麓山南路739号(天福来超市二楼西头)", "province": "湖南省", "city": "长沙市", "area": "岳麓区", "telephone": "18008467077", "detail": 1, "uid": "8fa2f928d289f45c59bbbc88"}, {"name": "金凤凰泡菜麓山南路店", "location": {"lat": 28.170067, "lng": 112.939903}, "address": "麓山南路761号", "province": "湖南省", "city": "长沙市", "area": "岳麓区", "street_id": "cd90b3bf9bb80e7cb04c4923", "telephone": "18670064184", "detail": 1, "uid": "cd90b3bf9bb80e7cb04c4923"}, {"name": "湘餐厅", "location": {"lat": 28.170366, "lng": 112.93883}, "address": "中南大学校本部西苑农贸市场2楼", "province": "湖南省", "city": "长沙市", "area": "岳麓区", "street_id": "ea5ef25ab649efcaafee7acb", "telephone": "18670792022", "detail": 1, "uid": "ea5ef25ab649efcaafee7acb"}, {"name": "跳跳蛙", "location": {"lat": 28.170301, "lng": 112.940387}, "address": "麓山南路932号中南大学附近", "province": "湖南省", "city": "长沙市", "area": "岳麓区", "street_id": "c50e58abd101f777d92f28e4", "detail": 1, "uid": "c50e58abd101f777d92f28e4"}, {"name": "豫缘烩面馆", "location": {"lat": 28.170044, "lng": 112.939126}, "address": "麓山南路左家垅西公交站悦购广场负一楼（室外左边楼梯下去）", "province": "湖南省", "city": "长沙市", "area": "岳麓区", "street_id": "73b0f64be451f69129fc485f", "telephone": "13054164481", "detail": 1, "uid": "73b0f64be451f69129fc485f"}]