[{"name": "长沙市工务局项目建设管理五部", "location": {"lat": 28.196144, "lng": 112.975253}, "address": "坡子街与湘江中路交叉口西南100米", "province": "湖南省", "city": "长沙市", "area": "天心区", "street_id": "a750efce9e16092fad080f93", "detail": 1, "uid": "a750efce9e16092fad080f93"}, {"name": "沿江风光带玉城南段管理办公室", "location": {"lat": 28.195411, "lng": 112.975136}, "address": "湖南省长沙市天心区半湘街54号", "province": "湖南省", "city": "长沙市", "area": "天心区", "street_id": "9d5a5770422719bf725e8052", "detail": 1, "uid": "9d5a5770422719bf725e8052"}, {"name": "坡子街派出所坡子街警务室", "location": {"lat": 28.196849, "lng": 112.975944}, "address": "坡子街与湘江中路交叉口东北100米", "province": "湖南省", "city": "长沙市", "area": "天心区", "street_id": "d950966a4aa4073ff50e7754", "detail": 1, "uid": "d950966a4aa4073ff50e7754"}, {"name": "长沙创投协会", "location": {"lat": 28.197912, "lng": 112.975774}, "address": "解放西路466汇源大厦5层", "province": "湖南省", "city": "长沙市", "area": "天心区", "street_id": "c6dcd608e4bdffdab4265531", "telephone": "(0731)88286890", "detail": 1, "uid": "c6dcd608e4bdffdab4265531"}, {"name": "坡子街派出所文庙坪警务室", "location": {"lat": 28.193885, "lng": 112.975468}, "address": "湘江中路60号附近", "province": "湖南省", "city": "长沙市", "area": "天心区", "street_id": "f5f66c04f9f504ea32f71d36", "detail": 1, "uid": "f5f66c04f9f504ea32f71d36"}, {"name": "水上消防中队", "location": {"lat": 28.198098, "lng": 112.975759}, "address": "解放西路口汇源大厦", "province": "湖南省", "city": "长沙市", "area": "天心区", "street_id": "68a59e0f65724c3817b54b10", "detail": 1, "uid": "68a59e0f65724c3817b54b10"}, {"name": "中国店子商务协会", "location": {"lat": 28.198345, "lng": 112.975664}, "address": "湘江中路二段18号江与城6楼", "province": "湖南省", "city": "长沙市", "area": "天心区", "street_id": "44c26075b8cb718a30621222", "detail": 1, "uid": "44c26075b8cb718a30621222"}, {"name": "坡子街街道城区综合管理大队坡子街中队", "location": {"lat": 28.196328, "lng": 112.978117}, "address": "湖南省长沙市天心区福胜街3号附近", "province": "湖南省", "city": "长沙市", "area": "天心区", "street_id": "26ee2079aafd434a1df74d1b", "detail": 1, "uid": "26ee2079aafd434a1df74d1b"}, {"name": "长沙市天心区新下河街棚户区改造项目征收指挥部", "location": {"lat": 28.198101, "lng": 112.977096}, "address": "湖南省长沙市天心区金线街汀兰雅苑东(BOBO国际西北)", "province": "湖南省", "city": "长沙市", "area": "天心区", "street_id": "91a54ced3e354fc0d6b74e8e", "detail": 1, "uid": "91a54ced3e354fc0d6b74e8e"}, {"name": "天心区地方税务局第二税务分局", "location": {"lat": 28.196029, "lng": 112.978498}, "address": "坡子街128", "province": "湖南省", "city": "长沙市", "area": "天心区", "street_id": "a71714b69079bff45fbe86f7", "detail": 1, "uid": "a71714b69079bff45fbe86f7"}, {"name": "文庙坪社区流动人口和出租房屋管理服务中心", "location": {"lat": 28.193027, "lng": 112.976254}, "address": "湖南省长沙市天心区湘江中路69号附近", "province": "湖南省", "city": "长沙市", "area": "天心区", "street_id": "94f996d73fb213a46068585b", "detail": 1, "uid": "94f996d73fb213a46068585b"}, {"name": "文庙坪社区人民调解委员会", "location": {"lat": 28.193027, "lng": 112.976245}, "address": "湖南省长沙市天心区湘江中路69号附近", "province": "湖南省", "city": "长沙市", "area": "天心区", "street_id": "2a0851baa7acee2e2ce67bf7", "detail": 1, "uid": "2a0851baa7acee2e2ce67bf7"}, {"name": "文庙坪社区党支部流动党员登记管理站", "location": {"lat": 28.193019, "lng": 112.976254}, "address": "湖南省长沙市天心区湘江中路69号附近", "province": "湖南省", "city": "长沙市", "area": "天心区", "street_id": "ebc97cf17952aff2e812e4d9", "detail": 1, "uid": "ebc97cf17952aff2e812e4d9"}, {"name": "文庙坪社区残疾人协会", "location": {"lat": 28.193015, "lng": 112.976245}, "address": "湖南省长沙市天心区湘江中路69号附近", "province": "湖南省", "city": "长沙市", "area": "天心区", "street_id": "f56cb18f103aa758e81e97a6", "detail": 1, "uid": "f56cb18f103aa758e81e97a6"}, {"name": "坡子街街道坡子街社区治安巡防站", "location": {"lat": 28.197078, "lng": 112.978587}, "address": "太平街与解放西路交叉口东南100米", "province": "湖南省", "city": "长沙市", "area": "天心区", "street_id": "2944afe976f5b9317c29bda3", "detail": 1, "uid": "2944afe976f5b9317c29bda3"}, {"name": "中共坡子街街道文庙坪社区支部委员会", "location": {"lat": 28.192863, "lng": 112.976333}, "address": "湘江中路70号附近", "province": "湖南省", "city": "长沙市", "area": "天心区", "street_id": "97c387cbd138eaadca1b95f2", "detail": 1, "uid": "97c387cbd138eaadca1b95f2"}, {"name": "湖南省茶业协会", "location": {"lat": 28.198391, "lng": 112.97819}, "address": "五一大道599", "province": "湖南省", "city": "长沙市", "area": "天心区", "street_id": "a1e1655eef574fd84354d7f7", "detail": 1, "uid": "a1e1655eef574fd84354d7f7"}, {"name": "花里flodis(海信店)", "location": {"lat": 28.196441, "lng": 112.975772}, "address": "海信广场7楼", "province": "湖南省", "city": "长沙市", "area": "天心区", "telephone": "(0731)85450900", "detail": 1, "uid": "e5021374c82b148d8a36eef5"}, {"name": "老街鱼嘴巴(坡子街店)", "location": {"lat": 28.196321, "lng": 112.978441}, "address": "坡子街87号长公馆酒店1层", "province": "湖南省", "city": "长沙市", "area": "天心区", "street_id": "a4fe822b8166744da10464a8", "telephone": "(0731)85586617", "detail": 1, "uid": "49d95938a3457841c61e5120"}, {"name": "水烧清酒和牛", "location": {"lat": 28.198021, "lng": 112.975954}, "address": "解放西路101", "province": "湖南省", "city": "长沙市", "area": "天心区", "telephone": "(0731)88710536", "detail": 1, "uid": "97e5bc2a00874194b3077d57"}]