[{"name": "环卫工作间", "location": {"lat": 28.190848, "lng": 112.976106}, "address": "湖南省长沙市天心区湘江中路306号", "province": "湖南省", "city": "长沙市", "area": "天心区", "street_id": "679079317593a6b25d17c313", "detail": 1, "uid": "679079317593a6b25d17c313"}, {"name": "中共坡子街街道文庙坪社区支部委员会", "location": {"lat": 28.192863, "lng": 112.976333}, "address": "湘江中路70号附近", "province": "湖南省", "city": "长沙市", "area": "天心区", "street_id": "97c387cbd138eaadca1b95f2", "detail": 1, "uid": "97c387cbd138eaadca1b95f2"}, {"name": "文庙坪社区残疾人协会", "location": {"lat": 28.193015, "lng": 112.976245}, "address": "湖南省长沙市天心区湘江中路69号附近", "province": "湖南省", "city": "长沙市", "area": "天心区", "street_id": "f56cb18f103aa758e81e97a6", "detail": 1, "uid": "f56cb18f103aa758e81e97a6"}, {"name": "文庙坪社区党支部流动党员登记管理站", "location": {"lat": 28.193019, "lng": 112.976254}, "address": "湖南省长沙市天心区湘江中路69号附近", "province": "湖南省", "city": "长沙市", "area": "天心区", "street_id": "ebc97cf17952aff2e812e4d9", "detail": 1, "uid": "ebc97cf17952aff2e812e4d9"}, {"name": "文庙坪社区人民调解委员会", "location": {"lat": 28.193027, "lng": 112.976245}, "address": "湖南省长沙市天心区湘江中路69号附近", "province": "湖南省", "city": "长沙市", "area": "天心区", "street_id": "2a0851baa7acee2e2ce67bf7", "detail": 1, "uid": "2a0851baa7acee2e2ce67bf7"}, {"name": "文庙坪社区流动人口和出租房屋管理服务中心", "location": {"lat": 28.193027, "lng": 112.976254}, "address": "湖南省长沙市天心区湘江中路69号附近", "province": "湖南省", "city": "长沙市", "area": "天心区", "street_id": "94f996d73fb213a46068585b", "detail": 1, "uid": "94f996d73fb213a46068585b"}, {"name": "文庙坪社区志愿者工作站", "location": {"lat": 28.190567, "lng": 112.978573}, "address": "湖南省长沙市天心区修文街63附近", "province": "湖南省", "city": "长沙市", "area": "天心区", "street_id": "34cfae2e426867cd30169bbf", "detail": 1, "uid": "34cfae2e426867cd30169bbf"}, {"name": "坡子街街道文庙坪社区居民委员会", "location": {"lat": 28.190479, "lng": 112.978599}, "address": "湖南省长沙市天心区西文庙坪巷19号附近", "province": "湖南省", "city": "长沙市", "area": "天心区", "street_id": "66c347726edf8d6db21e3669", "detail": 1, "uid": "66c347726edf8d6db21e3669"}, {"name": "中共文庙坪社区支部委员会", "location": {"lat": 28.190466, "lng": 112.978674}, "address": "湖南省长沙市天心区西文庙坪巷11附近", "province": "湖南省", "city": "长沙市", "area": "天心区", "street_id": "ccc2fc5b0e2397f5eb12e405", "detail": 1, "uid": "ccc2fc5b0e2397f5eb12e405"}, {"name": "坡子街街道登仁桥社区-工会联合会", "location": {"lat": 28.192196, "lng": 112.978904}, "address": "湖南省长沙市天心区上黎家坡巷108号", "province": "湖南省", "city": "长沙市", "area": "天心区", "street_id": "2ece6a29d8e58ebf97ec8468", "detail": 1, "uid": "2ece6a29d8e58ebf97ec8468"}, {"name": "中共坡子街街道登仁桥社区支部委员会", "location": {"lat": 28.192197, "lng": 112.978904}, "address": "上黎家坡巷45号附近", "province": "湖南省", "city": "长沙市", "area": "天心区", "street_id": "8d1cc1976ab9e3a16240a9bb", "detail": 1, "uid": "8d1cc1976ab9e3a16240a9bb"}, {"name": "登仁桥社区-人力资源和和社会保障服务中心", "location": {"lat": 28.192254, "lng": 112.978955}, "address": "上黎家坡巷108号", "province": "湖南省", "city": "长沙市", "area": "天心区", "street_id": "51f6fed8b26dcb04ce04efa2", "detail": 1, "uid": "51f6fed8b26dcb04ce04efa2"}, {"name": "坡子街街道登仁桥社区-居民委员会", "location": {"lat": 28.192255, "lng": 112.978955}, "address": "上黎家坡巷108", "province": "湖南省", "city": "长沙市", "area": "天心区", "street_id": "fa01e93760389a37774ff1d2", "telephone": "(0731)85116226", "detail": 1, "uid": "fa01e93760389a37774ff1d2"}, {"name": "坡子街派出所文庙坪警务室", "location": {"lat": 28.193885, "lng": 112.975468}, "address": "湘江中路60号附近", "province": "湖南省", "city": "长沙市", "area": "天心区", "street_id": "f5f66c04f9f504ea32f71d36", "detail": 1, "uid": "f5f66c04f9f504ea32f71d36"}, {"name": "中共培粹实验中学支部委员会", "location": {"lat": 28.191873, "lng": 112.979314}, "address": "上黎家坡巷43号附近", "province": "湖南省", "city": "长沙市", "area": "天心区", "detail": 1, "uid": "f05c3ddb27273dd5e6e96542"}, {"name": "长沙市天心区食品药品监督管理局城南路食品药品监督所", "location": {"lat": 28.188352, "lng": 112.978165}, "address": "湖南省长沙市天心区西湖社区卫生站(南门口地铁站西)", "province": "湖南省", "city": "长沙市", "area": "天心区", "street_id": "1d79056e2c192c20bfa82284", "detail": 1, "uid": "1d79056e2c192c20bfa82284"}, {"name": "中共西湖社区总支委员会", "location": {"lat": 28.18826, "lng": 112.978035}, "address": "长沙市天心区下碧湘街", "province": "湖南省", "city": "长沙市", "area": "天心区", "street_id": "a6e98c3e902c47a5c42ba1a6", "detail": 1, "uid": "a6e98c3e902c47a5c42ba1a6"}, {"name": "书院路街道工会联合会", "location": {"lat": 28.188231, "lng": 112.978021}, "address": "湖南省长沙市天心区下碧湘街57", "province": "湖南省", "city": "长沙市", "area": "天心区", "street_id": "e11609771c54a33382a00c44", "detail": 1, "uid": "e11609771c54a33382a00c44"}, {"name": "天心区政协书院路街道工作联络处", "location": {"lat": 28.188209, "lng": 112.978163}, "address": "下碧湘街57", "province": "湖南省", "city": "长沙市", "area": "天心区", "street_id": "94a8ccac28c8a5e85a10937d", "detail": 1, "uid": "94a8ccac28c8a5e85a10937d"}, {"name": "学院街派出所樊西巷社区警务室", "location": {"lat": 28.193862, "lng": 112.979458}, "address": "湖南省长沙市天心区人民西路78号附近", "province": "湖南省", "city": "长沙市", "area": "天心区", "street_id": "22990af9a1e4dfb087330454", "detail": 1, "uid": "22990af9a1e4dfb087330454"}]