[{"name": "中南大学-计划生育管理办公室", "location": {"lat": 28.173246, "lng": 112.938932}, "address": "湖南省长沙市岳麓区中南大学高家坪住宅新区", "province": "湖南省", "city": "长沙市", "area": "岳麓区", "street_id": "91c6152301541396077ce8fa", "detail": 1, "uid": "91c6152301541396077ce8fa"}, {"name": "长沙市岳麓区岳麓街道云麓园社区居委会", "location": {"lat": 28.173704, "lng": 112.938944}, "address": "岳麓街道麓山南路932号甘棠", "province": "湖南省", "city": "长沙市", "area": "岳麓区", "street_id": "c80252c335b8af5c3fe2319b", "detail": 1, "uid": "c80252c335b8af5c3fe2319b"}, {"name": "中南大学-学生平安健康保险服务办公室", "location": {"lat": 28.173704, "lng": 112.938944}, "address": "湖南省长沙市岳麓区中南大学六食堂后侧附近", "province": "湖南省", "city": "长沙市", "area": "岳麓区", "street_id": "38b215cb260ef2fc1ff74dc4", "detail": 1, "uid": "38b215cb260ef2fc1ff74dc4"}, {"name": "中南大学-教代会专门委员会", "location": {"lat": 28.173704, "lng": 112.938944}, "address": "麓山南路932号中南大学北校区", "province": "湖南省", "city": "长沙市", "area": "岳麓区", "street_id": "149fdaf515f93bf9ce04effe", "detail": 1, "uid": "149fdaf515f93bf9ce04effe"}, {"name": "住房保障中心", "location": {"lat": 28.173704, "lng": 112.938944}, "address": "湖南省长沙市岳麓区清水路", "province": "湖南省", "city": "长沙市", "area": "岳麓区", "street_id": "9bd9b9189322f66d1fe99947", "detail": 1, "uid": "9bd9b9189322f66d1fe99947"}, {"name": "中南大学-房产管理处", "location": {"lat": 28.173704, "lng": 112.938944}, "address": "湖南省长沙市岳麓区麓山南路932附近", "province": "湖南省", "city": "长沙市", "area": "岳麓区", "street_id": "5ce0577b5a087d9dbea240de", "detail": 1, "uid": "5ce0577b5a087d9dbea240de"}, {"name": "中南大学-教职工文体协会", "location": {"lat": 28.173828, "lng": 112.938809}, "address": "中南大学六食堂后侧附近", "province": "湖南省", "city": "长沙市", "area": "岳麓区", "street_id": "7258d83500ed416f6c3e1be3", "detail": 1, "uid": "7258d83500ed416f6c3e1be3"}, {"name": "中国教育工会中南大学委员会", "location": {"lat": 28.174141, "lng": 112.938868}, "address": "麓山南路932附近", "province": "湖南省", "city": "长沙市", "area": "岳麓区", "street_id": "67900412bb9c57da0b1cc745", "detail": 1, "uid": "67900412bb9c57da0b1cc745"}, {"name": "岳麓街道治安执勤室", "location": {"lat": 28.172136, "lng": 112.941399}, "address": "新棠巷6号附近", "province": "湖南省", "city": "长沙市", "area": "岳麓区", "detail": 1, "uid": "0b6529b169c882258f55ec69"}, {"name": "长沙市岳麓区岳麓街道麓山南路社区居委会", "location": {"lat": 28.171279, "lng": 112.941874}, "address": "麓山南路790", "province": "湖南省", "city": "长沙市", "area": "岳麓区", "street_id": "762e2095938eddf788b98829", "detail": 1, "uid": "762e2095938eddf788b98829"}, {"name": "岳麓街道麓山南路社区民兵营", "location": {"lat": 28.171279, "lng": 112.941874}, "address": "湖南省长沙市岳麓区麓山南路778号附近", "province": "湖南省", "city": "长沙市", "area": "岳麓区", "street_id": "4de11e7eb658fd8e3be4a6fc", "detail": 1, "uid": "4de11e7eb658fd8e3be4a6fc"}, {"name": "中共长沙市岳麓区岳麓街道麓山南路社区支部委员会", "location": {"lat": 28.171309, "lng": 112.941896}, "address": "麓山南路796号附近", "province": "湖南省", "city": "长沙市", "area": "岳麓区", "street_id": "f08b50b208fe9fc871455b4c", "detail": 1, "uid": "f08b50b208fe9fc871455b4c"}, {"name": "岳麓街道麓山南路社区-人力资源和社会保障服务中心", "location": {"lat": 28.171279, "lng": 112.941874}, "address": "湖南省长沙市岳麓区麓山南路790号附近", "province": "湖南省", "city": "长沙市", "area": "岳麓区", "street_id": "a201c1da15dd03b57f29bdc2", "detail": 1, "uid": "a201c1da15dd03b57f29bdc2"}, {"name": "岳麓派出所麓山南路社区警务室", "location": {"lat": 28.171279, "lng": 112.941874}, "address": "麓山南路790号", "province": "湖南省", "city": "长沙市", "area": "岳麓区", "street_id": "b702a03844f7d96bc2f1cfdf", "detail": 1, "uid": "b702a03844f7d96bc2f1cfdf"}, {"name": "中南大学离退休工作处", "location": {"lat": 28.17283, "lng": 112.936564}, "address": "麓山南路中南大学", "province": "湖南省", "city": "长沙市", "area": "岳麓区", "street_id": "0694b13d00e0ad177adbd2b7", "detail": 1, "uid": "0694b13d00e0ad177adbd2b7"}, {"name": "岳麓区社会矛盾调处中心(南片分中心)", "location": {"lat": 28.171557, "lng": 112.943276}, "address": "岳麓区麓山南路744号(中南大学南校区北大门对面)", "province": "湖南省", "city": "长沙市", "area": "岳麓区", "street_id": "3ee8f363153e29a6ac080f9c", "detail": 1, "uid": "3ee8f363153e29a6ac080f9c"}, {"name": "老街口老北京涮羊肉(中南店)", "location": {"lat": 28.171159, "lng": 112.942865}, "address": "麓山南路悦购广场2楼", "province": "湖南省", "city": "长沙市", "area": "岳麓区", "street_id": "2bcba0c87ca7b837a2acc4aa", "telephone": "13707487296", "detail": 1, "uid": "1d665afc5eaa789b4251c00b"}, {"name": "北京烤鸭(中南店)", "location": {"lat": 28.170092, "lng": 112.939321}, "address": "麓山南路791号", "province": "湖南省", "city": "长沙市", "area": "岳麓区", "street_id": "c2caebc4f2764a4f43e19225", "telephone": "(0731)82667355", "detail": 1, "uid": "c2caebc4f2764a4f43e19225"}, {"name": "上厨", "location": {"lat": 28.170889, "lng": 112.941091}, "address": "湖南省长沙市岳麓区麓山南路858", "province": "湖南省", "city": "长沙市", "area": "岳麓区", "street_id": "25319d8b698716114d776e45", "telephone": "(0731)85214158", "detail": 1, "uid": "25319d8b698716114d776e45"}, {"name": "小熊家烤鱼", "location": {"lat": 28.171518, "lng": 112.942736}, "address": "麓山南路742号(中南大学南校区大门对面2楼)", "province": "湖南省", "city": "长沙市", "area": "岳麓区", "street_id": "f8c57a312a682e1c8bdb734f", "telephone": "18025308719", "detail": 1, "uid": "f8c57a312a682e1c8bdb734f"}]