[{"name": "桔子洲派出所省中医药研究院附属医院警务室", "location": {"lat": 28.200878, "lng": 112.955787}, "address": "岳民巷与麓山路交叉口西200米", "province": "湖南省", "city": "长沙市", "area": "岳麓区", "street_id": "e8aa085dcdec578516a19033", "detail": 1, "uid": "e8aa085dcdec578516a19033"}, {"name": "长沙市公安局交通警察支队岳麓大队六中队", "location": {"lat": 28.201189, "lng": 112.958424}, "address": "枫林一路与麓山路交叉口南100米", "province": "湖南省", "city": "长沙市", "area": "岳麓区", "street_id": "57d30c6109e9f638ad045731", "detail": 1, "uid": "57d30c6109e9f638ad045731"}, {"name": "湖南省中医药学会内科专业委员会", "location": {"lat": 28.200413, "lng": 112.957573}, "address": "岳民巷与麓山路交叉口北50米", "province": "湖南省", "city": "长沙市", "area": "岳麓区", "street_id": "9fdb0e6845128c545dbe86a3", "detail": 1, "uid": "9fdb0e6845128c545dbe86a3"}, {"name": "湖南省中西医结合学会虚证与老年病专业委员会", "location": {"lat": 28.200413, "lng": 112.957573}, "address": "麓山路64", "province": "湖南省", "city": "长沙市", "area": "岳麓区", "street_id": "bf8d210ac6b760e00d3dda23", "detail": 1, "uid": "bf8d210ac6b760e00d3dda23"}, {"name": "湖南省中医药学会肿瘤专业委员会", "location": {"lat": 28.200413, "lng": 112.957573}, "address": "岳民巷与麓山路交叉口北50米", "province": "湖南省", "city": "长沙市", "area": "岳麓区", "street_id": "637eb9f8936235a2ed74f8f6", "detail": 1, "uid": "637eb9f8936235a2ed74f8f6"}, {"name": "湖南省中西医结合学会自然医学专业委员会", "location": {"lat": 28.200413, "lng": 112.957573}, "address": "麓山路64", "province": "湖南省", "city": "长沙市", "area": "岳麓区", "street_id": "7367c376501a52f326d2bb40", "detail": 1, "uid": "7367c376501a52f326d2bb40"}, {"name": "岳麓区城市管理综合执法大队执法服务点", "location": {"lat": 28.200801, "lng": 112.958382}, "address": "麓山路11号附近", "province": "湖南省", "city": "长沙市", "area": "岳麓区", "street_id": "d48c38b10a5ec13a43024596", "detail": 1, "uid": "d48c38b10a5ec13a43024596"}, {"name": "长沙学雷锋志愿服务通程商业广场(麓山)店工作站", "location": {"lat": 28.200595, "lng": 112.958147}, "address": "麓山路11号附近", "province": "湖南省", "city": "长沙市", "area": "岳麓区", "street_id": "f001e9e41e8d1b1ce0110358", "detail": 1, "uid": "f001e9e41e8d1b1ce0110358"}, {"name": "长沙市高压氧质量控制中心", "location": {"lat": 28.200047, "lng": 112.957094}, "address": "麓山路66", "province": "湖南省", "city": "长沙市", "area": "岳麓区", "street_id": "fab9c54f60555f57f8f0cb33", "detail": 1, "uid": "fab9c54f60555f57f8f0cb33"}, {"name": "长沙市临床检验质量控制中心", "location": {"lat": 28.200038, "lng": 112.957093}, "address": "麓山路66", "province": "湖南省", "city": "长沙市", "area": "岳麓区", "street_id": "c8ee39c811de01084d776e38", "detail": 1, "uid": "c8ee39c811de01084d776e38"}, {"name": "长沙市公安局岳麓分局长沙市第四医院警务室", "location": {"lat": 28.199661, "lng": 112.957031}, "address": "麓山路76号附近", "province": "湖南省", "city": "长沙市", "area": "岳麓区", "street_id": "a2b7122c299483f0b75f1e12", "detail": 1, "uid": "a2b7122c299483f0b75f1e12"}, {"name": "全国锰业技术委员会", "location": {"lat": 28.19962, "lng": 112.957538}, "address": "岳麓区麓山路33号", "province": "湖南省", "city": "长沙市", "area": "岳麓区", "street_id": "3f826ed3fda0b046d1f49e0a", "detail": 1, "uid": "3f826ed3fda0b046d1f49e0a"}, {"name": "岳麓区教育后勤办公室", "location": {"lat": 28.200487, "lng": 112.959854}, "address": "新民路新民小区北片3栋", "province": "湖南省", "city": "长沙市", "area": "岳麓区", "detail": 1, "uid": "cb3d433c11a8c377b1077d29"}, {"name": "谭家冲社区-人力资源和社会保障服务中心", "location": {"lat": 28.205116, "lng": 112.95472}, "address": "湖南省长沙市岳麓区枫林一路397号附近", "province": "湖南省", "city": "长沙市", "area": "岳麓区", "street_id": "ca250f764ec82a5e7069d3ef", "detail": 1, "uid": "ca250f764ec82a5e7069d3ef"}, {"name": "西湖街道谭家冲社区居委会", "location": {"lat": 28.205178, "lng": 112.954248}, "address": "枫林一路138号附近", "province": "湖南省", "city": "长沙市", "area": "岳麓区", "detail": 1, "uid": "2ab4cab377e19a7d5f17c3d2"}, {"name": "西湖街道谭家冲社区警务室", "location": {"lat": 28.20521, "lng": 112.954048}, "address": "枫林一路407号附近", "province": "湖南省", "city": "长沙市", "area": "岳麓区", "street_id": "1115996fee19518cae31e523", "detail": 1, "uid": "1115996fee19518cae31e523"}, {"name": "魔味鬼爪(河西通程商业广场店)", "location": {"lat": 28.201083, "lng": 112.958514}, "address": "枫林一路2号通程商业广场前坪", "province": "湖南省", "city": "长沙市", "area": "岳麓区", "street_id": "135e62dbba7fe970be4842a1", "telephone": "(0731)84443331", "detail": 1, "uid": "135e62dbba7fe970be4842a1"}, {"name": "德天顺盖码饭(枫林路店)", "location": {"lat": 28.203256, "lng": 112.957238}, "address": "岳麓区枫林一路145号2楼", "province": "湖南省", "city": "长沙市", "area": "岳麓区", "street_id": "bbdfda67c32e8743d42ce28d", "telephone": "(0731)82072665", "detail": 1, "uid": "bbdfda67c32e8743d42ce28d"}, {"name": "过锅瘾三汁焖锅(河西通程店)", "location": {"lat": 28.200889, "lng": 112.959244}, "address": "长沙市岳麓区枫林路1号通程商业广场F5", "province": "湖南省", "city": "长沙市", "area": "岳麓区", "street_id": "e7068d63804d42b02fb17e88", "telephone": "(0731)84892566", "detail": 1, "uid": "e7068d63804d42b02fb17e88"}, {"name": "龟来哒秘制小甲鱼(河西通程店)", "location": {"lat": 28.201002, "lng": 112.958442}, "address": "枫林路通程商业广场负一楼新一佳超市入口处", "province": "湖南省", "city": "长沙市", "area": "岳麓区", "street_id": "fda79bcad90c202f2bb97cc4", "telephone": "18108479183", "detail": 1, "uid": "fda79bcad90c202f2bb97cc4"}]