[{"name": "桔子洲派出所省中医药研究院附属医院警务室", "location": {"lat": 28.200878, "lng": 112.955787}, "address": "岳民巷与麓山路交叉口西200米", "province": "湖南省", "city": "长沙市", "area": "岳麓区", "street_id": "e8aa085dcdec578516a19033", "detail": 1, "uid": "e8aa085dcdec578516a19033"}, {"name": "湖南省交通医院-麓山老年公寓", "location": {"lat": 28.198551, "lng": 112.955729}, "address": "湖南省长沙市岳麓区麓山路86号3栋", "province": "湖南省", "city": "长沙市", "area": "岳麓区", "street_id": "88d688d31462aadce31103a5", "telephone": "(0731)89912120", "detail": 1, "uid": "88d688d31462aadce31103a5"}, {"name": "中共湖南师范大学委员会党校", "location": {"lat": 28.197952, "lng": 112.954937}, "address": "长沙市岳麓区麓山南路36号", "province": "湖南省", "city": "长沙市", "area": "岳麓区", "street_id": "7cd5fca29c66db492811d16b", "detail": 1, "uid": "7cd5fca29c66db492811d16b"}, {"name": "长沙市高压氧质量控制中心", "location": {"lat": 28.200047, "lng": 112.957094}, "address": "麓山路66", "province": "湖南省", "city": "长沙市", "area": "岳麓区", "street_id": "fab9c54f60555f57f8f0cb33", "detail": 1, "uid": "fab9c54f60555f57f8f0cb33"}, {"name": "长沙市临床检验质量控制中心", "location": {"lat": 28.200038, "lng": 112.957093}, "address": "麓山路66", "province": "湖南省", "city": "长沙市", "area": "岳麓区", "street_id": "c8ee39c811de01084d776e38", "detail": 1, "uid": "c8ee39c811de01084d776e38"}, {"name": "长沙市公安局岳麓分局长沙市第四医院警务室", "location": {"lat": 28.199661, "lng": 112.957031}, "address": "麓山路76号附近", "province": "湖南省", "city": "长沙市", "area": "岳麓区", "street_id": "a2b7122c299483f0b75f1e12", "detail": 1, "uid": "a2b7122c299483f0b75f1e12"}, {"name": "湖南省中医药学会内科专业委员会", "location": {"lat": 28.200413, "lng": 112.957573}, "address": "岳民巷与麓山路交叉口北50米", "province": "湖南省", "city": "长沙市", "area": "岳麓区", "street_id": "9fdb0e6845128c545dbe86a3", "detail": 1, "uid": "9fdb0e6845128c545dbe86a3"}, {"name": "湖南省中西医结合学会虚证与老年病专业委员会", "location": {"lat": 28.200413, "lng": 112.957573}, "address": "麓山路64", "province": "湖南省", "city": "长沙市", "area": "岳麓区", "street_id": "bf8d210ac6b760e00d3dda23", "detail": 1, "uid": "bf8d210ac6b760e00d3dda23"}, {"name": "湖南省中医药学会肿瘤专业委员会", "location": {"lat": 28.200413, "lng": 112.957573}, "address": "岳民巷与麓山路交叉口北50米", "province": "湖南省", "city": "长沙市", "area": "岳麓区", "street_id": "637eb9f8936235a2ed74f8f6", "detail": 1, "uid": "637eb9f8936235a2ed74f8f6"}, {"name": "湖南省中西医结合学会自然医学专业委员会", "location": {"lat": 28.200413, "lng": 112.957573}, "address": "麓山路64", "province": "湖南省", "city": "长沙市", "area": "岳麓区", "street_id": "7367c376501a52f326d2bb40", "detail": 1, "uid": "7367c376501a52f326d2bb40"}, {"name": "全国锰业技术委员会", "location": {"lat": 28.19962, "lng": 112.957538}, "address": "岳麓区麓山路33号", "province": "湖南省", "city": "长沙市", "area": "岳麓区", "street_id": "3f826ed3fda0b046d1f49e0a", "detail": 1, "uid": "3f826ed3fda0b046d1f49e0a"}, {"name": "长沙市岳麓区住房保障局", "location": {"lat": 28.198448, "lng": 112.957075}, "address": "麓山路69", "province": "湖南省", "city": "长沙市", "area": "岳麓区", "street_id": "867908c0633951b1e9f853b6", "telephone": "(0731)88859560", "detail": 1, "uid": "edd64ce1869fb9913fe2316b"}, {"name": "岳麓区计划统计物价局", "location": {"lat": 28.197881, "lng": 112.956494}, "address": "麓山路146号", "province": "湖南省", "city": "长沙市", "area": "岳麓区", "street_id": "89e2280f2f352a6626d2bbc6", "detail": 1, "uid": "89e2280f2f352a6626d2bbc6"}, {"name": "岳麓区城市房屋征收工作办公室", "location": {"lat": 28.198401, "lng": 112.95722}, "address": "麓山路63号附近", "province": "湖南省", "city": "长沙市", "area": "岳麓区", "street_id": "703e2fe3b3e7e494cac3db9a", "detail": 1, "uid": "703e2fe3b3e7e494cac3db9a"}, {"name": "橘子洲街道石门楼社区城市管理综合治理办公室", "location": {"lat": 28.197418, "lng": 112.957571}, "address": "石门楼街25号附近", "province": "湖南省", "city": "长沙市", "area": "岳麓区", "street_id": "fa79f17c827d7a1cb05c6a29", "detail": 1, "uid": "fa79f17c827d7a1cb05c6a29"}, {"name": "回头食客", "location": {"lat": 28.199109, "lng": 112.957771}, "address": "荣湾镇岳麓山新民路106号南门", "province": "湖南省", "city": "长沙市", "area": "岳麓区", "street_id": "b98fc3395d164b55d618b73b", "telephone": "(0731)88035918", "detail": 1, "uid": "b98fc3395d164b55d618b73b"}, {"name": "田间食味(麓山店)", "location": {"lat": 28.198082, "lng": 112.957033}, "address": "麓山路93号(四医院斜对面)", "province": "湖南省", "city": "长沙市", "area": "岳麓区", "telephone": "(0731)82152099", "detail": 1, "uid": "16500c9d288e1bf1a11de922"}, {"name": "壹家思味", "location": {"lat": 28.199258, "lng": 112.957619}, "address": "新民路128号", "province": "湖南省", "city": "长沙市", "area": "岳麓区", "street_id": "4f36bdb7496ed22ef32d8327", "telephone": "(0731)89873589,13787235890", "detail": 1, "uid": "4f36bdb7496ed22ef32d8327"}, {"name": "湘香米煲仔饭(麓山店)", "location": {"lat": 28.197424, "lng": 112.956534}, "address": "桔子洲街道麓山路170号", "province": "湖南省", "city": "长沙市", "area": "岳麓区", "telephone": "18674816009", "detail": 1, "uid": "6c50279debb56fe414b54b59"}, {"name": "仙都辣酱鸭(麓山东门店)", "location": {"lat": 28.199661, "lng": 112.95713}, "address": "麓山路78号", "province": "湖南省", "city": "长沙市", "area": "岳麓区", "street_id": "920b41d08dd3e93bb05c6a74", "telephone": "13135318638", "detail": 1, "uid": "920b41d08dd3e93bb05c6a74"}]