[{"name": "通泰街派出所寿星街警务室", "location": {"lat": 28.21142, "lng": 112.979987}, "address": "营盘路34", "province": "湖南省", "city": "长沙市", "area": "开福区", "street_id": "c8127d7b5be2f8e2f4eafcc9", "detail": 1, "uid": "db280a39489f7b7db54f54a6"}, {"name": "中共寿星街社区党委委员会", "location": {"lat": 28.210422, "lng": 112.980076}, "address": "湖南省长沙市开福区营盘路34", "province": "湖南省", "city": "长沙市", "area": "开福区", "street_id": "aad122e2ef0dabc9f8dc853c", "detail": 1, "uid": "aad122e2ef0dabc9f8dc853c"}, {"name": "开福区通泰街街道寿星街社区工会联合会", "location": {"lat": 28.210589, "lng": 112.98013}, "address": "营盘路34号", "province": "湖南省", "city": "长沙市", "area": "开福区", "street_id": "02ac26e960c5716fa8059d13", "detail": 1, "uid": "02ac26e960c5716fa8059d13"}, {"name": "流动党员登记管理站", "location": {"lat": 28.210592, "lng": 112.980154}, "address": "营盘东路23号附近", "province": "湖南省", "city": "长沙市", "area": "开福区", "street_id": "3f926055d5dd5bdc81288a1e", "detail": 1, "uid": "3f926055d5dd5bdc81288a1e"}, {"name": "通泰街街道寿星街社区居民委员会", "location": {"lat": 28.210671, "lng": 112.980335}, "address": "营盘路34", "province": "湖南省", "city": "长沙市", "area": "开福区", "street_id": "4eb3b533bfaf9308430245fa", "telephone": "(0731)84913859", "detail": 1, "uid": "4eb3b533bfaf9308430245fa"}, {"name": "中国共产党通泰街街道湘春路社区总支部委员会", "location": {"lat": 28.212836, "lng": 112.979254}, "address": "湖南省长沙市开福区湘江中路193附近", "province": "湖南省", "city": "长沙市", "area": "开福区", "street_id": "2951cb56b6247a6eeaf853f4", "detail": 1, "uid": "2951cb56b6247a6eeaf853f4"}, {"name": "通泰街街道湘春路社区居民委员会", "location": {"lat": 28.212836, "lng": 112.979254}, "address": "湖南省长沙市开福区落棚桥巷11号", "province": "湖南省", "city": "长沙市", "area": "开福区", "street_id": "ad048bab2a4a4950fda7780b", "detail": 1, "uid": "ad048bab2a4a4950fda7780b"}, {"name": "长沙市城市管理和行政执法局开福区执法大队通泰街中队", "location": {"lat": 28.209429, "lng": 112.980816}, "address": "寿星街7号", "province": "湖南省", "city": "长沙市", "area": "开福区", "street_id": "aa1f1a2f174e17ec0d3ddaf1", "detail": 1, "uid": "aa1f1a2f174e17ec0d3ddaf1"}, {"name": "中国人民政治协商会议湖南省长沙市开福区委员会通泰街街道政协工作联络处", "location": {"lat": 28.209429, "lng": 112.980816}, "address": "湖南省长沙市开福区寿星街7号", "province": "湖南省", "city": "长沙市", "area": "开福区", "street_id": "e25f29ede16c2264c5effb84", "detail": 1, "uid": "ecf4a1823c4d6ed513293533"}, {"name": "通泰街街道办事处", "location": {"lat": 28.209429, "lng": 112.980816}, "address": "寿星街7号", "province": "湖南省", "city": "长沙市", "area": "开福区", "street_id": "50f7d146fe9e29c472210b6b", "telephone": "(0731)84860772", "detail": 1, "uid": "50f7d146fe9e29c472210b6b"}, {"name": "通泰街地税所", "location": {"lat": 28.209437, "lng": 112.980845}, "address": "湖南省长沙市开福区寿星街7号", "province": "湖南省", "city": "长沙市", "area": "开福区", "street_id": "a46f96adc396134625e0a040", "detail": 1, "uid": "a46f96adc396134625e0a040"}, {"name": "中共通泰街街道纪律检查委员会", "location": {"lat": 28.209533, "lng": 112.980921}, "address": "寿星街7号", "province": "湖南省", "city": "长沙市", "area": "开福区", "street_id": "a479cc67c22797589122e03b", "detail": 1, "uid": "67675b66704793c4abf0cd6b"}, {"name": "开福区人大常委会通泰街街道工作委员会", "location": {"lat": 28.209477, "lng": 112.980904}, "address": "寿星街7号", "province": "湖南省", "city": "长沙市", "area": "开福区", "street_id": "5b4cbff799bfd4559e82ead8", "detail": 1, "uid": "5b4cbff799bfd4559e82ead8"}, {"name": "通泰街街道工会联合会", "location": {"lat": 28.209493, "lng": 112.980913}, "address": "寿星街7号", "province": "湖南省", "city": "长沙市", "area": "开福区", "street_id": "d93f122ae7f28bc9a11de939", "detail": 1, "uid": "d93f122ae7f28bc9a11de939"}, {"name": "通泰街街道人力资源和社会保障服务站", "location": {"lat": 28.209422, "lng": 112.980917}, "address": "寿星街7号", "province": "湖南省", "city": "长沙市", "area": "开福区", "street_id": "ca145855ed179a4cfd0eb09c", "detail": 1, "uid": "ca145855ed179a4cfd0eb09c"}, {"name": "通泰街街道政务服务中心", "location": {"lat": 28.209477, "lng": 112.980965}, "address": "寿星街7号", "province": "湖南省", "city": "长沙市", "area": "开福区", "street_id": "50d93c91425641586f3e1b0f", "detail": 1, "uid": "50d93c91425641586f3e1b0f"}, {"name": "长沙市开福区人民检擦院驻通泰街街道检察联络会", "location": {"lat": 28.209522, "lng": 112.981037}, "address": "湖南省长沙市开福区寿星街上城金都·国际公馆西50米", "province": "湖南省", "city": "长沙市", "area": "开福区", "street_id": "f182b20004f2d37bf7e73bd0", "detail": 1, "uid": "1eae66fc23733470c61b7531"}, {"name": "通泰街街道中山西路社区居民委员会", "location": {"lat": 28.207934, "lng": 112.978877}, "address": "福庆街98号附近", "province": "湖南省", "city": "长沙市", "area": "开福区", "street_id": "46e86fdda3f70311d03ce391", "detail": 1, "uid": "46e86fdda3f70311d03ce391"}, {"name": "中山西路社区-志愿者服务站", "location": {"lat": 28.207926, "lng": 112.978878}, "address": "福庆街22号附近", "province": "湖南省", "city": "长沙市", "area": "开福区", "street_id": "16320411991957bd49fd3f19", "detail": 1, "uid": "16320411991957bd49fd3f19"}, {"name": "开福区通泰街道通泰社区物业服务中心", "location": {"lat": 28.209676, "lng": 112.981476}, "address": "黄兴北路5号", "province": "湖南省", "city": "长沙市", "area": "开福区", "street_id": "4ceb4ff350ba4cfffb0cad93", "detail": 1, "uid": "4ceb4ff350ba4cfffb0cad93"}]