[{"name": "长沙市潮宗街片区棚户区改造及历史文化街区建设项目指挥部", "location": {"lat": 28.218872, "lng": 112.981666}, "address": "熙宁街3-65号附近", "province": "湖南省", "city": "长沙市", "area": "开福区", "detail": 1, "uid": "1134568c4db127f340024520"}, {"name": "芙蓉北路街道工作组", "location": {"lat": 28.218872, "lng": 112.981666}, "address": "熙宁街3-65号", "province": "湖南省", "city": "长沙市", "area": "开福区", "detail": 1, "uid": "a95143c7ee42371c85420e47"}, {"name": "湘雅路分指挥部征收工作组", "location": {"lat": 28.218872, "lng": 112.981666}, "address": "湖南省长沙市开福区三角塘巷32号附近", "province": "湖南省", "city": "长沙市", "area": "开福区", "detail": 1, "uid": "c1cfc3d28fbb795b593ac855"}, {"name": "三角塘社区-工会联合会", "location": {"lat": 28.219143, "lng": 112.980654}, "address": "湘江中路一段113号", "province": "湖南省", "city": "长沙市", "area": "开福区", "street_id": "446d1ee04823c9249a00504c", "detail": 1, "uid": "446d1ee04823c9249a00504c"}, {"name": "中共长沙市开福区纪律检查委员会湘雅路街道工作委员会", "location": {"lat": 28.218478, "lng": 112.981447}, "address": "湘江中路126号附近", "province": "湖南省", "city": "长沙市", "area": "开福区", "detail": 1, "uid": "d57b779b166c2d28c51b75f4"}, {"name": "长沙市开福区人大常委会湘雅路街道人大工作委员会", "location": {"lat": 28.218454, "lng": 112.981474}, "address": "湖南省长沙市开福区湘江中路1段-118号东90米", "province": "湖南省", "city": "长沙市", "area": "开福区", "detail": 1, "uid": "0dd82e89f6f0caccc71e51af"}, {"name": "中共湖南省工作委员会旧址", "location": {"lat": 28.219181, "lng": 112.982766}, "address": "三角塘巷32", "province": "湖南省", "city": "长沙市", "area": "开福区", "street_id": "e455ed39ae0c3e91b04c4961", "detail": 1, "uid": "e455ed39ae0c3e91b04c4961"}, {"name": "中国人民政治协商会议长沙市开福区湘雅路街道工作联络处", "location": {"lat": 28.218438, "lng": 112.981416}, "address": "湖南省长沙市开福区湘江中路1段-118号东80米", "province": "湖南省", "city": "长沙市", "area": "开福区", "detail": 1, "uid": "19503d93fc00d5a02bd7ab40"}, {"name": "长沙市开福区湘雅路街道办事处", "location": {"lat": 28.218438, "lng": 112.981416}, "address": "长沙市开福区湘江中路一段118号", "province": "湖南省", "city": "长沙市", "area": "开福区", "street_id": "2f56ff022dceb1ff4207c169", "detail": 1, "uid": "2f56ff022dceb1ff4207c169"}, {"name": "长沙市公安局开福分局湘雅路派出所", "location": {"lat": 28.218631, "lng": 112.980849}, "address": "湘江中路118号", "province": "湖南省", "city": "长沙市", "area": "开福区", "street_id": "4eb3b533f430d8754302456a", "detail": 1, "uid": "4eb3b533f430d8754302456a"}, {"name": "长沙市花鼓戏保护传承中心", "location": {"lat": 28.221111, "lng": 112.983266}, "address": "油铺街68号", "province": "湖南省", "city": "长沙市", "area": "开福区", "street_id": "12a88c2be1c11f89b64f54d6", "detail": 1, "uid": "12a88c2be1c11f89b64f54d6"}, {"name": "长沙市道教协会", "location": {"lat": 28.219007, "lng": 112.984344}, "address": "湖南省长沙市开福区东岳宫巷3号", "province": "湖南省", "city": "长沙市", "area": "开福区", "street_id": "d1bb0375741daa83f60e77e5", "detail": 1, "uid": "d1bb0375741daa83f60e77e5"}, {"name": "环卫工作间", "location": {"lat": 28.217459, "lng": 112.979956}, "address": "湖南省长沙市开福区湘江中路119号", "province": "湖南省", "city": "长沙市", "area": "开福区", "street_id": "666047286d1ee7fd52e5c515", "detail": 1, "uid": "666047286d1ee7fd52e5c515"}, {"name": "长沙市白蚁防治站工会委员会", "location": {"lat": 28.222337, "lng": 112.981008}, "address": "湘江中路一段76", "province": "湖南省", "city": "长沙市", "area": "开福区", "street_id": "d199faa2e2e8a465d4851fe2", "detail": 1, "uid": "d199faa2e2e8a465d4851fe2"}, {"name": "长沙市白蚁防治站", "location": {"lat": 28.222499, "lng": 112.981146}, "address": "开福区湘江中路一段76号", "province": "湖南省", "city": "长沙市", "area": "开福区", "street_id": "e8027ce91ca0c52ec056aced", "detail": 1, "uid": "e8027ce91ca0c52ec056aced"}, {"name": "长沙市基督教三自爱国运动委员会", "location": {"lat": 28.217161, "lng": 112.984811}, "address": "外湘春街80", "province": "湖南省", "city": "长沙市", "area": "开福区", "street_id": "3e7183f3cbd15a9d3fe231ff", "detail": 1, "uid": "3e7183f3cbd15a9d3fe231ff"}, {"name": "长沙市基督教协会", "location": {"lat": 28.217161, "lng": 112.984811}, "address": "湖南省长沙市开福区外湘春街80", "province": "湖南省", "city": "长沙市", "area": "开福区", "street_id": "88c35b933c5655131d1d1149", "detail": 1, "uid": "88c35b933c5655131d1d1149"}, {"name": "长沙市基督教老年人之家", "location": {"lat": 28.217021, "lng": 112.984708}, "address": "外湘春街80号", "province": "湖南省", "city": "长沙市", "area": "开福区", "street_id": "a5a86c145f8bec1143ab9acb", "detail": 1, "uid": "a5a86c145f8bec1143ab9acb"}, {"name": "吃了没有(湘雅路店)", "location": {"lat": 28.220272, "lng": 112.981606}, "address": "湖南省长沙市开福区湘雅路374号(湘天酒店旁)", "province": "湖南省", "city": "长沙市", "area": "开福区", "telephone": "(0731)85461799,13308417869", "detail": 1, "uid": "2ebc9b522b5fd63387330498"}, {"name": "胖哥虾尾花甲", "location": {"lat": 28.219962, "lng": 112.982801}, "address": "湘雅路302号手机工厂店右转油铺街即到(手机工厂店右转油铺街即到)", "province": "湖南省", "city": "长沙市", "area": "开福区", "street_id": "655fd5757f6f42bef942b2e1", "telephone": "18613954600", "detail": 1, "uid": "2a6167574388bfddd13ce3ca"}]