[{"name": "长沙市白蚁防治站", "location": {"lat": 28.222499, "lng": 112.981146}, "address": "开福区湘江中路一段76号", "province": "湖南省", "city": "长沙市", "area": "开福区", "street_id": "e8027ce91ca0c52ec056aced", "detail": 1, "uid": "e8027ce91ca0c52ec056aced"}, {"name": "长沙市白蚁防治站工会委员会", "location": {"lat": 28.222337, "lng": 112.981008}, "address": "湘江中路一段76", "province": "湖南省", "city": "长沙市", "area": "开福区", "street_id": "d199faa2e2e8a465d4851fe2", "detail": 1, "uid": "d199faa2e2e8a465d4851fe2"}, {"name": "湘雅路派出所油铺街警务室", "location": {"lat": 28.223845, "lng": 112.983227}, "address": "油铺街329号", "province": "湖南省", "city": "长沙市", "area": "开福区", "street_id": "a0b20fb38851c1cfeddfca91", "detail": 1, "uid": "a0b20fb38851c1cfeddfca91"}, {"name": "湖南省房地产中介行业协会", "location": {"lat": 28.224531, "lng": 112.981876}, "address": "长沙市湘江中路52号", "province": "湖南省", "city": "长沙市", "area": "开福区", "street_id": "6792dfa9a91c3ad080a00c75", "detail": 1, "uid": "6792dfa9a91c3ad080a00c75"}, {"name": "长沙市花鼓戏保护传承中心", "location": {"lat": 28.221111, "lng": 112.983266}, "address": "油铺街68号", "province": "湖南省", "city": "长沙市", "area": "开福区", "street_id": "12a88c2be1c11f89b64f54d6", "detail": 1, "uid": "12a88c2be1c11f89b64f54d6"}, {"name": "湖南省家用电器行业商会", "location": {"lat": 28.224591, "lng": 112.981618}, "address": "湘江中路52号凯乐国际城9栋8楼家电行", "province": "湖南省", "city": "长沙市", "area": "开福区", "street_id": "170a9b0660b21ca3100daa6f", "detail": 1, "uid": "170a9b0660b21ca3100daa6f"}, {"name": "长沙市水上应急救援基地", "location": {"lat": 28.224748, "lng": 112.980854}, "address": "湖南省长沙市开福区湘江中路57号", "province": "湖南省", "city": "长沙市", "area": "开福区", "street_id": "dde30c1bc4af8b71cd04ef21", "detail": 1, "uid": "dde30c1bc4af8b71cd04ef21"}, {"name": "中共湘雅路街道百善台社区委员会", "location": {"lat": 28.22443, "lng": 112.985058}, "address": "湖南省长沙市开福区毛家桥巷49号附近", "province": "湖南省", "city": "长沙市", "area": "开福区", "street_id": "e31a0899afbe0522f03cbaeb", "detail": 1, "uid": "e31a0899afbe0522f03cbaeb"}, {"name": "丁字路口派出所", "location": {"lat": 28.219765, "lng": 112.985328}, "address": "湘雅路与大王家巷", "province": "湖南省", "city": "长沙市", "area": "开福区", "detail": 1, "uid": "0fb2432c80052f5dd4851ff3"}, {"name": "吃了没有(湘雅路店)", "location": {"lat": 28.220272, "lng": 112.981606}, "address": "湖南省长沙市开福区湘雅路374号(湘天酒店旁)", "province": "湖南省", "city": "长沙市", "area": "开福区", "telephone": "(0731)85461799,13308417869", "detail": 1, "uid": "2ebc9b522b5fd63387330498"}, {"name": "样饭", "location": {"lat": 28.225361, "lng": 112.981548}, "address": "湘江中路一段48号(长沙银行)", "province": "湖南省", "city": "长沙市", "area": "开福区", "street_id": "eac7b63b2afba9222cb96dc1", "telephone": "18908478730,13808472051", "detail": 1, "uid": "eac7b63b2afba9222cb96dc1"}, {"name": "胖哥虾尾花甲", "location": {"lat": 28.219962, "lng": 112.982801}, "address": "湘雅路302号手机工厂店右转油铺街即到(手机工厂店右转油铺街即到)", "province": "湖南省", "city": "长沙市", "area": "开福区", "street_id": "655fd5757f6f42bef942b2e1", "telephone": "18613954600", "detail": 1, "uid": "2a6167574388bfddd13ce3ca"}, {"name": "玉楼东1904社区厨房", "location": {"lat": 28.220443, "lng": 112.980774}, "address": "长沙市开福区湘雅路378号1楼", "province": "湖南省", "city": "长沙市", "area": "开福区", "street_id": "2fb67a483123a25676e5b648", "telephone": "(0731)82288288", "detail": 1, "uid": "6968962c0e0ac52d4054d7e9"}, {"name": "兰庭汇-东城酒楼", "location": {"lat": 28.224734, "lng": 112.981338}, "address": "湘江中路一段52号凯乐国际大厦六楼", "province": "湖南省", "city": "长沙市", "area": "开福区", "street_id": "9758cae5829d561443e19216", "detail": 1, "uid": "9758cae5829d561443e19216"}, {"name": "湘里人家土菜馆", "location": {"lat": 28.224361, "lng": 112.983927}, "address": "湘雅路街道凯乐国际城6栋102号门面", "province": "湖南省", "city": "长沙市", "area": "开福区", "street_id": "fb63b48baacd76f2d62ce2ea", "telephone": "15116241351", "detail": 1, "uid": "fb63b48baacd76f2d62ce2ea"}, {"name": "醇湘·望江楼餐厅", "location": {"lat": 28.224929, "lng": 112.982814}, "address": "湖南省长沙市开福区竹山园街1号", "province": "湖南省", "city": "长沙市", "area": "开福区", "street_id": "87da2b9662190e76cc06a424", "telephone": "18673158723", "detail": 1, "uid": "87da2b9662190e76cc06a424"}, {"name": "重庆馋香鸭(湖南总店)", "location": {"lat": 28.219598, "lng": 112.983747}, "address": "湘雅路269号", "province": "湖南省", "city": "长沙市", "area": "开福区", "street_id": "a18819d3bb498f1f2fb17ef3", "telephone": "18975116332", "detail": 1, "uid": "a18819d3bb498f1f2fb17ef3"}, {"name": "Ai鸡排", "location": {"lat": 28.219659, "lng": 112.98341}, "address": "湘雅路街道湘雅路287号", "province": "湖南省", "city": "长沙市", "area": "开福区", "street_id": "18a407913caf1cd8882fb5c2", "telephone": "18684966152", "detail": 1, "uid": "18a407913caf1cd8882fb5c2"}, {"name": "东安鸡馆(湘雅路店)", "location": {"lat": 28.220106, "lng": 112.981822}, "address": "湘雅路356号", "province": "湖南省", "city": "长沙市", "area": "开福区", "street_id": "2763cce486a08727eee4a504", "telephone": "13367319921", "detail": 1, "uid": "2763cce486a08727eee4a504"}, {"name": "开福食府", "location": {"lat": 28.224892, "lng": 112.981914}, "address": "三湘都市报6楼", "province": "湖南省", "city": "长沙市", "area": "开福区", "street_id": "da3ba8ec8481a4b9bfa82247", "telephone": "(0731)83520005", "detail": 1, "uid": "da3ba8ec8481a4b9bfa82247"}]