[{"name": "开福区通泰街道通泰社区物业服务中心", "location": {"lat": 28.209676, "lng": 112.981476}, "address": "黄兴北路5号", "province": "湖南省", "city": "长沙市", "area": "开福区", "street_id": "4ceb4ff350ba4cfffb0cad93", "detail": 1, "uid": "4ceb4ff350ba4cfffb0cad93"}, {"name": "通泰街社区-物业管理协会", "location": {"lat": 28.209676, "lng": 112.981476}, "address": "湖南省长沙市开福区中山路359附近", "province": "湖南省", "city": "长沙市", "area": "开福区", "street_id": "c303eaa4b1920b7e734b87e6", "detail": 1, "uid": "c303eaa4b1920b7e734b87e6"}, {"name": "长沙市开福区人民检擦院驻通泰街街道检察联络会", "location": {"lat": 28.209522, "lng": 112.981037}, "address": "湖南省长沙市开福区寿星街上城金都·国际公馆西50米", "province": "湖南省", "city": "长沙市", "area": "开福区", "street_id": "f182b20004f2d37bf7e73bd0", "detail": 1, "uid": "1eae66fc23733470c61b7531"}, {"name": "中国插花花艺协会培训中心(试点)", "location": {"lat": 28.209372, "lng": 112.981927}, "address": "左局街与黄兴北路交叉口西南100米", "province": "湖南省", "city": "长沙市", "area": "开福区", "street_id": "21fdbd8e8189e8c76cc02c12", "detail": 1, "uid": "21fdbd8e8189e8c76cc02c12"}, {"name": "中共通泰街街道纪律检查委员会", "location": {"lat": 28.209533, "lng": 112.980921}, "address": "寿星街7号", "province": "湖南省", "city": "长沙市", "area": "开福区", "street_id": "a479cc67c22797589122e03b", "detail": 1, "uid": "67675b66704793c4abf0cd6b"}, {"name": "通泰街街道政务服务中心", "location": {"lat": 28.209477, "lng": 112.980965}, "address": "寿星街7号", "province": "湖南省", "city": "长沙市", "area": "开福区", "street_id": "50d93c91425641586f3e1b0f", "detail": 1, "uid": "50d93c91425641586f3e1b0f"}, {"name": "通泰街街道工会联合会", "location": {"lat": 28.209493, "lng": 112.980913}, "address": "寿星街7号", "province": "湖南省", "city": "长沙市", "area": "开福区", "street_id": "d93f122ae7f28bc9a11de939", "detail": 1, "uid": "d93f122ae7f28bc9a11de939"}, {"name": "开福区人大常委会通泰街街道工作委员会", "location": {"lat": 28.209477, "lng": 112.980904}, "address": "寿星街7号", "province": "湖南省", "city": "长沙市", "area": "开福区", "street_id": "5b4cbff799bfd4559e82ead8", "detail": 1, "uid": "5b4cbff799bfd4559e82ead8"}, {"name": "通泰街街道人力资源和社会保障服务站", "location": {"lat": 28.209422, "lng": 112.980917}, "address": "寿星街7号", "province": "湖南省", "city": "长沙市", "area": "开福区", "street_id": "ca145855ed179a4cfd0eb09c", "detail": 1, "uid": "ca145855ed179a4cfd0eb09c"}, {"name": "通泰街地税所", "location": {"lat": 28.209437, "lng": 112.980845}, "address": "湖南省长沙市开福区寿星街7号", "province": "湖南省", "city": "长沙市", "area": "开福区", "street_id": "a46f96adc396134625e0a040", "detail": 1, "uid": "a46f96adc396134625e0a040"}, {"name": "长沙市城市管理和行政执法局开福区执法大队通泰街中队", "location": {"lat": 28.209429, "lng": 112.980816}, "address": "寿星街7号", "province": "湖南省", "city": "长沙市", "area": "开福区", "street_id": "aa1f1a2f174e17ec0d3ddaf1", "detail": 1, "uid": "aa1f1a2f174e17ec0d3ddaf1"}, {"name": "中国人民政治协商会议湖南省长沙市开福区委员会通泰街街道政协工作联络处", "location": {"lat": 28.209429, "lng": 112.980816}, "address": "湖南省长沙市开福区寿星街7号", "province": "湖南省", "city": "长沙市", "area": "开福区", "street_id": "e25f29ede16c2264c5effb84", "detail": 1, "uid": "ecf4a1823c4d6ed513293533"}, {"name": "通泰街街道办事处", "location": {"lat": 28.209429, "lng": 112.980816}, "address": "寿星街7号", "province": "湖南省", "city": "长沙市", "area": "开福区", "street_id": "50f7d146fe9e29c472210b6b", "telephone": "(0731)84860772", "detail": 1, "uid": "50f7d146fe9e29c472210b6b"}, {"name": "长沙市开福区食品药品监督管理局通泰街食品药品监管所", "location": {"lat": 28.208849, "lng": 112.981469}, "address": "湖南省长沙市开福区又一村巷上城金都·国际公馆南门", "province": "湖南省", "city": "长沙市", "area": "开福区", "street_id": "607152d651eb9a31ad31e5a1", "detail": 1, "uid": "607152d651eb9a31ad31e5a1"}, {"name": "通泰街街道通泰街社区人民调解委员会", "location": {"lat": 28.208811, "lng": 112.981328}, "address": "潮宗古街26号附近", "province": "湖南省", "city": "长沙市", "area": "开福区", "street_id": "adf910340856f63d2dfaa74c", "detail": 1, "uid": "adf910340856f63d2dfaa74c"}, {"name": "通泰街社区-青少年教育委员会", "location": {"lat": 28.208811, "lng": 112.981329}, "address": "潮宗古街26号附近", "province": "湖南省", "city": "长沙市", "area": "开福区", "street_id": "a8215c0364917cd8c909f072", "detail": 1, "uid": "a8215c0364917cd8c909f072"}, {"name": "通泰街街道通泰街社区残疾人协会", "location": {"lat": 28.208811, "lng": 112.981331}, "address": "潮宗古街26号附近", "province": "湖南省", "city": "长沙市", "area": "开福区", "street_id": "39547505a9320d2e3717dc0d", "detail": 1, "uid": "39547505a9320d2e3717dc0d"}, {"name": "通泰街街道通泰街社区居民委员会", "location": {"lat": 28.208817, "lng": 112.98133}, "address": "湖南省长沙市开福区潮宗街22号附近", "province": "湖南省", "city": "长沙市", "area": "开福区", "street_id": "42cb78751d38449a9703190c", "detail": 1, "uid": "42cb78751d38449a9703190c"}, {"name": "通泰街街道通泰街社区劳动社会保障管理服务中心", "location": {"lat": 28.208814, "lng": 112.981328}, "address": "潮宗古街26号附近", "province": "湖南省", "city": "长沙市", "area": "开福区", "street_id": "f0635459fb0a70a28c55ec3f", "detail": 1, "uid": "f0635459fb0a70a28c55ec3f"}, {"name": "通泰街街道寿星街社区居民委员会", "location": {"lat": 28.210671, "lng": 112.980335}, "address": "营盘路34", "province": "湖南省", "city": "长沙市", "area": "开福区", "street_id": "4eb3b533bfaf9308430245fa", "telephone": "(0731)84913859", "detail": 1, "uid": "4eb3b533bfaf9308430245fa"}]