[{"name": "通泰街街道吉福街社区居民委员会", "location": {"lat": 28.202835, "lng": 112.976785}, "address": "通泰街街道湘江中路万达公馆4栋裙楼", "province": "湖南省", "city": "长沙市", "area": "开福区", "street_id": "0fe547168093d50dd9d891b8", "detail": 1, "uid": "0fe547168093d50dd9d891b8"}, {"name": "西长街街道办事处", "location": {"lat": 28.202418, "lng": 112.977432}, "address": "落棚桥巷与西长街交叉口西南150米", "province": "湖南省", "city": "长沙市", "area": "开福区", "street_id": "f47ef6dcfa62e9043310afc8", "detail": 1, "uid": "f47ef6dcfa62e9043310afc8"}, {"name": "豪宅管理处", "location": {"lat": 28.201652, "lng": 112.977076}, "address": "通泰街街道万达公馆三楼", "province": "湖南省", "city": "长沙市", "area": "开福区", "detail": 1, "uid": "d8a685823d2329ad40e19244"}, {"name": "华中师范大学长沙校友会", "location": {"lat": 28.201599, "lng": 112.977501}, "address": "五一大道982号湘江明珠大厦4层", "province": "湖南省", "city": "长沙市", "area": "开福区", "street_id": "90fb9a32ebc94999b817e7ff", "detail": 1, "uid": "90fb9a32ebc94999b817e7ff"}, {"name": "湖南省水上交通安全指挥监控中心", "location": {"lat": 28.201599, "lng": 112.977501}, "address": "五一大道982号湘江明珠大厦3层", "province": "湖南省", "city": "长沙市", "area": "开福区", "street_id": "edf7a3da7ad665ec5cd4fee7", "detail": 1, "uid": "edf7a3da7ad665ec5cd4fee7"}, {"name": "湖南省船舶检验局", "location": {"lat": 28.201588, "lng": 112.977629}, "address": "五一大道982号湘江明珠大厦10、12层", "province": "湖南省", "city": "长沙市", "area": "开福区", "street_id": "f3c2373c5a2e0352d22dd66b", "telephone": "(0731)84883850", "detail": 1, "uid": "f3c2373c5a2e0352d22dd66b"}, {"name": "湖南省航务管理局局属企业改制办", "location": {"lat": 28.201586, "lng": 112.977629}, "address": "五一大道982号湘江明珠大厦7层", "province": "湖南省", "city": "长沙市", "area": "开福区", "street_id": "acfd07ab97136d0c80a00c96", "detail": 1, "uid": "acfd07ab97136d0c80a00c96"}, {"name": "湖南省航务管理局信访接待室", "location": {"lat": 28.201585, "lng": 112.977629}, "address": "五一大道982号湘江明珠大厦9层", "province": "湖南省", "city": "长沙市", "area": "开福区", "street_id": "abc73a5bca9bce245fd4fee0", "detail": 1, "uid": "abc73a5bca9bce245fd4fee0"}, {"name": "湖南省航务管理局工会", "location": {"lat": 28.201586, "lng": 112.977629}, "address": "五一大道982号湘江明珠大厦9层", "province": "湖南省", "city": "长沙市", "area": "开福区", "street_id": "b824839570f7fc2f9d82eac3", "detail": 1, "uid": "b824839570f7fc2f9d82eac3"}, {"name": "湖南省地方海事局-离退办", "location": {"lat": 28.201585, "lng": 112.977625}, "address": "五一大道982号湘江明珠大厦9层", "province": "湖南省", "city": "长沙市", "area": "开福区", "street_id": "1eb1ae5c32fa049603ff2d0f", "detail": 1, "uid": "1eb1ae5c32fa049603ff2d0f"}, {"name": "湖南省水运管理局", "location": {"lat": 28.201507, "lng": 112.977566}, "address": "五一大道982号湘江明珠大厦9-12层", "province": "湖南省", "city": "长沙市", "area": "开福区", "street_id": "15ed53ce0629a3549222e06b", "detail": 1, "uid": "cdf0c5810a77f1b3c61e51e1"}, {"name": "湖南省航务管理局纪检监察室", "location": {"lat": 28.201587, "lng": 112.977629}, "address": "五一大道982号湘江明珠大厦11层", "province": "湖南省", "city": "长沙市", "area": "开福区", "street_id": "fca949808fd7b72a43e192c4", "detail": 1, "uid": "fca949808fd7b72a43e192c4"}, {"name": "湖南省地方海事局", "location": {"lat": 28.201588, "lng": 112.977629}, "address": "五一大道982号湘江明珠大厦10层", "province": "湖南省", "city": "长沙市", "area": "开福区", "street_id": "40683eefc9dd15b22ce67bee", "detail": 1, "uid": "53cebd50fc918a612a02e16b"}, {"name": "坡子街街道城区综合管理大队下河街中队", "location": {"lat": 28.200755, "lng": 112.976803}, "address": "下河街7号附近", "province": "湖南省", "city": "长沙市", "area": "天心区", "street_id": "87cf3338581abab826e0a045", "detail": 1, "uid": "87cf3338581abab826e0a045"}, {"name": "长沙港务局", "location": {"lat": 28.204098, "lng": 112.975779}, "address": "湘江中路附近", "province": "湖南省", "city": "长沙市", "area": "开福区", "street_id": "b3ae7ba9d54ff82d81288a7d", "detail": 1, "uid": "b3ae7ba9d54ff82d81288a7d"}, {"name": "湖南省船舶检验局政务大厅", "location": {"lat": 28.201379, "lng": 112.977997}, "address": "长沙市开福区五一大道976号附近", "province": "湖南省", "city": "长沙市", "area": "开福区", "detail": 1, "uid": "fe8bb32edc81f26d80a00cac"}, {"name": "湖南省地方海事局政务大厅", "location": {"lat": 28.201379, "lng": 112.978002}, "address": "五一大道976号附近", "province": "湖南省", "city": "长沙市", "area": "开福区", "detail": 1, "uid": "1f1f9574dce313fa4bcc4a7e"}, {"name": "中国在韩侨民协会总会湖南联络处", "location": {"lat": 28.204413, "lng": 112.976924}, "address": "中山路589号万达·总部国际写字楼B座8层08011", "province": "湖南省", "city": "长沙市", "area": "开福区", "street_id": "7e8744fb472afc65b25c6aaa", "detail": 1, "uid": "7e8744fb472afc65b25c6aaa"}, {"name": "全球医院论坛筹委会", "location": {"lat": 28.204413, "lng": 112.976924}, "address": "中山路589号万达·总部国际写字楼B座8层08011", "province": "湖南省", "city": "长沙市", "area": "开福区", "street_id": "892d3ac7210860a4a8f72963", "detail": 1, "uid": "892d3ac7210860a4a8f72963"}, {"name": "开福金街招商办公室", "location": {"lat": 28.204244, "lng": 112.978364}, "address": "永兴街与西长街交叉口西北50米", "province": "湖南省", "city": "长沙市", "area": "开福区", "street_id": "08fb0d42efffc35714c8f6dd", "detail": 1, "uid": "08fb0d42efffc35714c8f6dd"}]