[{"name": "湖南省房地产中介行业协会", "location": {"lat": 28.224531, "lng": 112.981876}, "address": "长沙市湘江中路52号", "province": "湖南省", "city": "长沙市", "area": "开福区", "street_id": "6792dfa9a91c3ad080a00c75", "detail": 1, "uid": "6792dfa9a91c3ad080a00c75"}, {"name": "湖南省家用电器行业商会", "location": {"lat": 28.224591, "lng": 112.981618}, "address": "湘江中路52号凯乐国际城9栋8楼家电行", "province": "湖南省", "city": "长沙市", "area": "开福区", "street_id": "170a9b0660b21ca3100daa6f", "detail": 1, "uid": "170a9b0660b21ca3100daa6f"}, {"name": "新河地区西河派出所竹山园社区治安巡防站", "location": {"lat": 28.226373, "lng": 112.981901}, "address": "湘江中路43号附近", "province": "湖南省", "city": "长沙市", "area": "开福区", "detail": 1, "uid": "33c5722aa4903227581093d4"}, {"name": "湘雅路派出所油铺街警务室", "location": {"lat": 28.223845, "lng": 112.983227}, "address": "油铺街329号", "province": "湖南省", "city": "长沙市", "area": "开福区", "street_id": "a0b20fb38851c1cfeddfca91", "detail": 1, "uid": "a0b20fb38851c1cfeddfca91"}, {"name": "长沙市水上应急救援基地", "location": {"lat": 28.224748, "lng": 112.980854}, "address": "湖南省长沙市开福区湘江中路57号", "province": "湖南省", "city": "长沙市", "area": "开福区", "street_id": "dde30c1bc4af8b71cd04ef21", "detail": 1, "uid": "dde30c1bc4af8b71cd04ef21"}, {"name": "中共湘雅路街道百善台社区委员会", "location": {"lat": 28.22443, "lng": 112.985058}, "address": "湖南省长沙市开福区毛家桥巷49号附近", "province": "湖南省", "city": "长沙市", "area": "开福区", "street_id": "e31a0899afbe0522f03cbaeb", "detail": 1, "uid": "e31a0899afbe0522f03cbaeb"}, {"name": "长沙市白蚁防治站", "location": {"lat": 28.222499, "lng": 112.981146}, "address": "开福区湘江中路一段76号", "province": "湖南省", "city": "长沙市", "area": "开福区", "street_id": "e8027ce91ca0c52ec056aced", "detail": 1, "uid": "e8027ce91ca0c52ec056aced"}, {"name": "新河派出所竹山园社区二轻治安点", "location": {"lat": 28.22801, "lng": 112.982601}, "address": "湖南省长沙市开福区华夏路4号附近", "province": "湖南省", "city": "长沙市", "area": "开福区", "detail": 1, "uid": "09285ce80d45fbeb704b8719"}, {"name": "长沙市白蚁防治站工会委员会", "location": {"lat": 28.222337, "lng": 112.981008}, "address": "湘江中路一段76", "province": "湖南省", "city": "长沙市", "area": "开福区", "street_id": "d199faa2e2e8a465d4851fe2", "detail": 1, "uid": "d199faa2e2e8a465d4851fe2"}, {"name": "长沙市黄兴北路建设及棚户区改造征收工程办公室新河街道工作组", "location": {"lat": 28.228077, "lng": 112.984325}, "address": "毛家桥街与湘江中路一段交叉口东北50米", "province": "湖南省", "city": "长沙市", "area": "开福区", "street_id": "56c4c6fa7171acb97ab55c73", "detail": 1, "uid": "56c4c6fa7171acb97ab55c73"}, {"name": "湘雅路派出所百善台警务室", "location": {"lat": 28.222809, "lng": 112.985436}, "address": "湖南省长沙市开福区湘江中路百善台小区", "province": "湖南省", "city": "长沙市", "area": "开福区", "street_id": "b8284434d5b0608ead31e56c", "detail": 1, "uid": "b8284434d5b0608ead31e56c"}, {"name": "天时人和食府", "location": {"lat": 28.226276, "lng": 112.981758}, "address": "竹山园湘江中路一段新43号（近竹山园汽车站）", "province": "湖南省", "city": "长沙市", "area": "开福区", "street_id": "b357f257465d9fcdf7e73b55", "telephone": "(0731)84479218", "detail": 1, "uid": "b357f257465d9fcdf7e73b55"}, {"name": "样饭", "location": {"lat": 28.225361, "lng": 112.981548}, "address": "湘江中路一段48号(长沙银行)", "province": "湖南省", "city": "长沙市", "area": "开福区", "street_id": "eac7b63b2afba9222cb96dc1", "telephone": "18908478730,13808472051", "detail": 1, "uid": "eac7b63b2afba9222cb96dc1"}, {"name": "颜记私房菜", "location": {"lat": 28.227144, "lng": 112.983899}, "address": "毛家桥231号", "province": "湖南省", "city": "长沙市", "area": "开福区", "street_id": "ec5b2bad91035103c51b7514", "telephone": "15307310408", "detail": 1, "uid": "ec5b2bad91035103c51b7514"}, {"name": "兰庭汇-东城酒楼", "location": {"lat": 28.224734, "lng": 112.981338}, "address": "湘江中路一段52号凯乐国际大厦六楼", "province": "湖南省", "city": "长沙市", "area": "开福区", "street_id": "9758cae5829d561443e19216", "detail": 1, "uid": "9758cae5829d561443e19216"}, {"name": "湘里人家土菜馆", "location": {"lat": 28.224361, "lng": 112.983927}, "address": "湘雅路街道凯乐国际城6栋102号门面", "province": "湖南省", "city": "长沙市", "area": "开福区", "street_id": "fb63b48baacd76f2d62ce2ea", "telephone": "15116241351", "detail": 1, "uid": "fb63b48baacd76f2d62ce2ea"}, {"name": "醇湘·望江楼餐厅", "location": {"lat": 28.224929, "lng": 112.982814}, "address": "湖南省长沙市开福区竹山园街1号", "province": "湖南省", "city": "长沙市", "area": "开福区", "street_id": "87da2b9662190e76cc06a424", "telephone": "18673158723", "detail": 1, "uid": "87da2b9662190e76cc06a424"}, {"name": "开福食府", "location": {"lat": 28.224892, "lng": 112.981914}, "address": "三湘都市报6楼", "province": "湖南省", "city": "长沙市", "area": "开福区", "street_id": "da3ba8ec8481a4b9bfa82247", "telephone": "(0731)83520005", "detail": 1, "uid": "da3ba8ec8481a4b9bfa82247"}, {"name": "臻膳坊私房菜馆", "location": {"lat": 28.224598, "lng": 112.983275}, "address": "湘江中路凯乐国际城7栋2单元306室房", "province": "湖南省", "city": "长沙市", "area": "开福区", "street_id": "bc08e3f00a5507dbb11e3615", "detail": 1, "uid": "bc08e3f00a5507dbb11e3615"}, {"name": "香力量煲仔饭(凯乐国际店)", "location": {"lat": 28.225051, "lng": 112.982893}, "address": "湘江中路一段52号凯乐国际10栋104号", "province": "湖南省", "city": "长沙市", "area": "开福区", "street_id": "74c46e75a2088a0b75e5b686", "telephone": "(0731)84625433", "detail": 1, "uid": "74c46e75a2088a0b75e5b686"}]