[{"name": "集贤宾馆停车场-出入口", "location": {"lat": 28.187566, "lng": 112.948435}, "address": "湖南省长沙市岳麓区湖南大学集贤宾馆", "province": "湖南省", "city": "长沙市", "area": "岳麓区", "street_id": "e27ee72457fe0209c9c3dbe4", "detail": 1, "uid": "e27ee72457fe0209c9c3dbe4"}, {"name": "集贤宾馆-停车场", "location": {"lat": 28.18747, "lng": 112.94863}, "address": "麓山南路1号集贤宾馆附近", "province": "湖南省", "city": "长沙市", "area": "岳麓区", "street_id": "f1bd23fc7fc7bdff373a713b", "detail": 1, "uid": "f1bd23fc7fc7bdff373a713b"}, {"name": "湖南大学大礼堂-停车场", "location": {"lat": 28.185996, "lng": 112.949242}, "address": "湖南省长沙市岳麓区登高路", "province": "湖南省", "city": "长沙市", "area": "岳麓区", "street_id": "293adcd5d6d21646b320a897", "detail": 1, "uid": "293adcd5d6d21646b320a897"}, {"name": "湖南大学北停车场-入口", "location": {"lat": 28.185972, "lng": 112.949825}, "address": "长沙市岳麓区", "province": "湖南省", "city": "长沙市", "area": "岳麓区", "street_id": "3d79e6bc327e069fc03644f3", "detail": 1, "uid": "3d79e6bc327e069fc03644f3"}, {"name": "湖南大学-北停车场", "location": {"lat": 28.185985, "lng": 112.949915}, "address": "湖南省长沙市岳麓区登高路", "province": "湖南省", "city": "长沙市", "area": "岳麓区", "street_id": "7a15498914cf25dece04efe7", "detail": 1, "uid": "7a15498914cf25dece04efe7"}, {"name": "湖南大学北停车场-出口", "location": {"lat": 28.185894, "lng": 112.949748}, "address": "长沙市岳麓区", "province": "湖南省", "city": "长沙市", "area": "岳麓区", "street_id": "15026aa3225ae6305e0d02e5", "detail": 1, "uid": "15026aa3225ae6305e0d02e5"}, {"name": "岳麓山国家重点风景名胜区停车场(红叶楼区东北)-出入口", "location": {"lat": 28.186769, "lng": 112.945405}, "address": "长沙市岳麓区登高路58号岳麓山国家重点风景名胜区岳麓山国家重点风景名胜区-停车场(红叶楼区东北)内", "province": "湖南省", "city": "长沙市", "area": "岳麓区", "detail": 1, "uid": "079ffebfc0ce0368be484264"}, {"name": "岳麓山国家重点风景名胜区-停车场(红叶楼区东北)", "location": {"lat": 28.186864, "lng": 112.945299}, "address": "长沙市岳麓区登高路58号岳麓山国家重点风景名胜区", "province": "湖南省", "city": "长沙市", "area": "岳麓区", "street_id": "fd0a15a30bcffc128b2fb5c0", "detail": 1, "uid": "fd0a15a30bcffc128b2fb5c0"}]