[{"name": "湘麓驾校报名处停车场-出入口", "location": {"lat": 28.191039, "lng": 112.976044}, "address": "楚湘街与西湖路交叉口东北100米", "province": "湖南省", "city": "长沙市", "area": "天心区", "street_id": "87d2086311bdef3f43afe606", "detail": 1, "uid": "87d2086311bdef3f43afe606"}, {"name": "停车场", "location": {"lat": 28.191048, "lng": 112.976079}, "address": "湖南省长沙市天心区湘江中路半湘巷6号(杜甫江阁附近)", "province": "湖南省", "city": "长沙市", "area": "天心区", "street_id": "08fcf1a46657eecf7c29bdce", "detail": 1, "uid": "08fcf1a46657eecf7c29bdce"}, {"name": "停车场-出入口", "location": {"lat": 28.191015, "lng": 112.976044}, "address": "古潭街与湘江中路交叉口东北100米", "province": "湖南省", "city": "长沙市", "area": "天心区", "street_id": "b687a8cdb9365fc08bdb7304", "detail": 1, "uid": "b687a8cdb9365fc08bdb7304"}, {"name": "华远·华中心停车场-出入口", "location": {"lat": 28.194349, "lng": 112.976967}, "address": "人民西路16号附近", "province": "湖南省", "city": "长沙市", "area": "天心区", "detail": 1, "uid": "66e683467834ed01ab0dd8ee"}, {"name": "学院新村小区-停车场", "location": {"lat": 28.192351, "lng": 112.978895}, "address": "上黎家坡巷108号附近", "province": "湖南省", "city": "长沙市", "area": "天心区", "street_id": "f5686353562e5a78f4e73b02", "detail": 1, "uid": "f5686353562e5a78f4e73b02"}, {"name": "学院新村小区停车场-出入口", "location": {"lat": 28.192085, "lng": 112.979028}, "address": "上黎家坡巷108号附近", "province": "湖南省", "city": "长沙市", "area": "天心区", "street_id": "32b0c7e06b2c8a4738e4a661", "detail": 1, "uid": "32b0c7e06b2c8a4738e4a661"}, {"name": "停车场出入口", "location": {"lat": 28.195471, "lng": 112.977107}, "address": "长沙市天心区湘江中路2段36号海信广场F1", "province": "湖南省", "city": "长沙市", "area": "天心区", "street_id": "9812102b52d5c69af7e73bf2", "detail": 1, "uid": "9812102b52d5c69af7e73bf2"}, {"name": "停车场出入口", "location": {"lat": 28.195419, "lng": 112.977562}, "address": "长沙市天心区湘江中路2段36号海信广场F1", "province": "湖南省", "city": "长沙市", "area": "天心区", "street_id": "05f1ab48e6c7f0ec2d47333d", "detail": 1, "uid": "05f1ab48e6c7f0ec2d47333d"}]