[{"name": "停车场", "location": {"lat": 28.195671, "lng": 112.97679}, "address": "长沙市天心区湘江中路2段36号海信广场B3", "province": "湖南省", "city": "长沙市", "area": "天心区", "detail": 1, "uid": "e6ecffd458775a9d9322e0e4"}, {"name": "华远·华中心-停车场", "location": {"lat": 28.196404, "lng": 112.977144}, "address": "长沙市天心区坡子街87号", "province": "湖南省", "city": "长沙市", "area": "天心区", "street_id": "49a1bc0be4841aec1b94c609", "detail": 1, "uid": "49a1bc0be4841aec1b94c609"}, {"name": "停车场(湘江中路)", "location": {"lat": 28.196004, "lng": 112.975231}, "address": "坡子街与湘江中路交叉口南100米", "province": "湖南省", "city": "长沙市", "area": "天心区", "detail": 1, "uid": "0cadcdc0d0f364fd0f0e6b3d"}, {"name": "华远华中心一期-负一层商业停车场", "location": {"lat": 28.196975, "lng": 112.976474}, "address": "湖南省长沙市天心区坡子街7附近", "province": "湖南省", "city": "长沙市", "area": "天心区", "street_id": "139727a9a08f45453b221c63", "detail": 1, "uid": "139727a9a08f45453b221c63"}, {"name": "华远·华中心-地下停车场", "location": {"lat": 28.197007, "lng": 112.976469}, "address": "湖南省长沙市天心区坡子街47号附近", "province": "湖南省", "city": "长沙市", "area": "天心区", "street_id": "a22f2ad6beec33f5fa0cadb7", "detail": 1, "uid": "a22f2ad6beec33f5fa0cadb7"}, {"name": "长沙长公馆酒店-停车场", "location": {"lat": 28.196498, "lng": 112.978204}, "address": "坡子街87号长公馆酒店", "province": "湖南省", "city": "长沙市", "area": "天心区", "street_id": "9231fc43cda3dc171894c601", "detail": 1, "uid": "9231fc43cda3dc171894c601"}, {"name": "二号栋-地下层停车场", "location": {"lat": 28.196698, "lng": 112.978662}, "address": "解放西路423号附近", "province": "湖南省", "city": "长沙市", "area": "天心区", "street_id": "8d7d77728aa944fe2a02e166", "detail": 1, "uid": "8d7d77728aa944fe2a02e166"}, {"name": "女人世界全自动智能立体车库", "location": {"lat": 28.197701, "lng": 112.977503}, "address": "太平街与解放西路交叉口西100米", "province": "湖南省", "city": "长沙市", "area": "天心区", "street_id": "4f62249e70e256513010afb3", "detail": 1, "uid": "4f62249e70e256513010afb3"}]