[{"name": "停车场(高家坪南)", "location": {"lat": 28.172896, "lng": 112.939794}, "address": "清水路附近", "province": "湖南省", "city": "长沙市", "area": "岳麓区", "street_id": "ed07f6541b9b4c17ed74f88e", "detail": 1, "uid": "ed07f6541b9b4c17ed74f88e"}, {"name": "停车场(广宇园丁新村西北)", "location": {"lat": 28.172386, "lng": 112.939705}, "address": "清水路附近", "province": "湖南省", "city": "长沙市", "area": "岳麓区", "street_id": "fa8111dee647223f95ca0742", "detail": 1, "uid": "fa8111dee647223f95ca0742"}, {"name": "中南大学北校区车队-车库", "location": {"lat": 28.172518, "lng": 112.937278}, "address": "湖南省长沙市岳麓区麓山南路932号", "province": "湖南省", "city": "长沙市", "area": "岳麓区", "street_id": "7be947873c6f3c33ca2915e1", "detail": 1, "uid": "7be947873c6f3c33ca2915e1"}, {"name": "中南大学-停车场", "location": {"lat": 28.175716, "lng": 112.938633}, "address": "升华大道与清水路交叉口东南100米", "province": "湖南省", "city": "长沙市", "area": "岳麓区", "street_id": "d2ef46df7f17f9b9c1f1cf08", "detail": 1, "uid": "d2ef46df7f17f9b9c1f1cf08"}, {"name": "停车场(清水路)", "location": {"lat": 28.176154, "lng": 112.938078}, "address": "升华大道与清水路交叉口南100米", "province": "湖南省", "city": "长沙市", "area": "岳麓区", "street_id": "d0590afad1657f949868b476", "detail": 1, "uid": "d0590afad1657f949868b476"}, {"name": "中南大学-停车场", "location": {"lat": 28.175693, "lng": 112.936007}, "address": "麓山南路932号中南大学内", "province": "湖南省", "city": "长沙市", "area": "岳麓区", "detail": 1, "uid": "9b6cd17ffc37d6abd1f49ea7"}, {"name": "悦购广场-停车场", "location": {"lat": 28.170386, "lng": 112.941429}, "address": "麓山南路183号附近", "province": "湖南省", "city": "长沙市", "area": "岳麓区", "street_id": "8ea685e32fd88259ac04578e", "detail": 1, "uid": "8ea685e32fd88259ac04578e"}, {"name": "停车场(出入口)", "location": {"lat": 28.169973, "lng": 112.941095}, "address": "麓山南路721号附近", "province": "湖南省", "city": "长沙市", "area": "岳麓区", "detail": 1, "uid": "8897a76bb0da0b40901fc9d8"}]