[{"name": "露天停车场", "location": {"lat": 28.202873, "lng": 112.976092}, "address": "五一大道与湘江中路交叉口东北50米", "province": "湖南省", "city": "长沙市", "area": "开福区", "street_id": "6fd79dc909f258e48c1a89b6", "detail": 1, "uid": "6fd79dc909f258e48c1a89b6"}, {"name": "万达公馆-湘江中路停车场", "location": {"lat": 28.203049, "lng": 112.976179}, "address": "五一大道与湘江中路交汇处西北角", "province": "湖南省", "city": "长沙市", "area": "开福区", "detail": 1, "uid": "5973b6dcd6f125be3517dc32"}, {"name": "万达广场开福店停车场", "location": {"lat": 28.202408, "lng": 112.976259}, "address": "湖南省长沙市开福区湘江中路589号", "province": "湖南省", "city": "长沙市", "area": "开福区", "street_id": "fc9fffffa9bcb3ebb5265589", "detail": 1, "uid": "fc9fffffa9bcb3ebb5265589"}, {"name": "露天停车场-出入口", "location": {"lat": 28.203323, "lng": 112.976141}, "address": "湖南省长沙市开福区西长街湘江中路万达公馆", "province": "湖南省", "city": "长沙市", "area": "开福区", "street_id": "0da1d6e8b651d6450482c2cf", "detail": 1, "uid": "0da1d6e8b651d6450482c2cf"}, {"name": "万达广场停车场入口", "location": {"lat": 28.203388, "lng": 112.97633}, "address": "湖南省长沙市开福区湘江中路367号附近", "province": "湖南省", "city": "长沙市", "area": "开福区", "street_id": "2b6a1155485cba7b7402699b", "detail": 1, "uid": "2b6a1155485cba7b7402699b"}, {"name": "大西门老码头生态停车场", "location": {"lat": 28.204059, "lng": 112.975832}, "address": "湘江中路与落棚桥巷交叉口西北100米", "province": "湖南省", "city": "长沙市", "area": "开福区", "street_id": "bce4c0312d52e01182288af4", "detail": 1, "uid": "bce4c0312d52e01182288af4"}, {"name": "万达公馆停车场-出入口", "location": {"lat": 28.203032, "lng": 112.977448}, "address": "落棚桥巷与西长街交叉口西150米", "province": "湖南省", "city": "长沙市", "area": "开福区", "street_id": "8b4e10ed0a41386f1ee99943", "detail": 1, "uid": "8b4e10ed0a41386f1ee99943"}, {"name": "万达公馆停车场-出口", "location": {"lat": 28.202212, "lng": 112.97744}, "address": "五一大道与橘子洲大桥交叉口东北150米", "province": "湖南省", "city": "长沙市", "area": "开福区", "street_id": "08f8bf19e85c3b119b68b4fb", "detail": 1, "uid": "08f8bf19e85c3b119b68b4fb"}]