[{"name": "停车场", "location": {"lat": 28.200266, "lng": 112.954465}, "address": "长沙市岳麓区", "province": "湖南省", "city": "长沙市", "area": "岳麓区", "street_id": "e85e2527598e405395f08c10", "detail": 1, "uid": "e85e2527598e405395f08c10"}, {"name": "岳麓山国家重点风景名胜区-停车场", "location": {"lat": 28.200377, "lng": 112.954202}, "address": "长沙市岳麓区麓山路82号岳麓山风景名胜区", "province": "湖南省", "city": "长沙市", "area": "岳麓区", "detail": 1, "uid": "865b9efa6e10aaa31811d57b"}, {"name": "岳麓山国家重点风景名胜区停车场-出入口", "location": {"lat": 28.2003, "lng": 112.954093}, "address": "长沙市岳麓区麓山路82号岳麓山风景名胜区岳麓山国家重点风景名胜区-停车场内", "province": "湖南省", "city": "长沙市", "area": "岳麓区", "detail": 1, "uid": "f6ae104d5036a391d92f28bf"}, {"name": "岳麓山国家重点风景名胜区-车库", "location": {"lat": 28.199935, "lng": 112.955008}, "address": "湖南省长沙市岳麓区桔子洲街道岳民巷长沙市第四医院西", "province": "湖南省", "city": "长沙市", "area": "岳麓区", "detail": 1, "uid": "6e68b3d965d345f7e856fa0f"}, {"name": "长沙市第四医院-停车场", "location": {"lat": 28.20038, "lng": 112.956284}, "address": "麓山路70号", "province": "湖南省", "city": "长沙市", "area": "岳麓区", "detail": 1, "uid": "79c17c76c6ed0258c356ac57"}, {"name": "岳麓山国家重点风景名胜区停车场-出入口", "location": {"lat": 28.199369, "lng": 112.955728}, "address": "湖南省长沙市岳麓区桔子洲街道麓山路长沙市第四医院南", "province": "湖南省", "city": "长沙市", "area": "岳麓区", "street_id": "946b6988ff0b354229201a39", "detail": 1, "uid": "946b6988ff0b354229201a39"}, {"name": "枫林宾馆-停车场", "location": {"lat": 28.202213, "lng": 112.956784}, "address": "枫林一路46号", "province": "湖南省", "city": "长沙市", "area": "岳麓区", "street_id": "033e74e6e9fdbb52c7f50dda", "detail": 1, "uid": "033e74e6e9fdbb52c7f50dda"}, {"name": "四医院-地下车库", "location": {"lat": 28.199743, "lng": 112.956859}, "address": "湖南省长沙市岳麓区麓山路70号附近", "province": "湖南省", "city": "长沙市", "area": "岳麓区", "street_id": "1e48869af2a62027047ce8ea", "detail": 1, "uid": "1e48869af2a62027047ce8ea"}]