[{"name": "香江锦园-地下停车场", "location": {"lat": 28.222587, "lng": 112.981806}, "address": "湖南省长沙市开福区湘江中路香江锦城旁(金色屋顶南50米)", "province": "湖南省", "city": "长沙市", "area": "开福区", "street_id": "3e4677915ae72f0eb55f1eb9", "detail": 1, "uid": "3e4677915ae72f0eb55f1eb9"}, {"name": "凯乐国际城-停车场", "location": {"lat": 28.224213, "lng": 112.982092}, "address": "湘江中路", "province": "湖南省", "city": "长沙市", "area": "开福区", "street_id": "3f2559df7da254d3b35c6ae2", "detail": 1, "uid": "3f2559df7da254d3b35c6ae2"}, {"name": "停车场(香江锦园北)", "location": {"lat": 28.223952, "lng": 112.981313}, "address": "湘江中路66号附近", "province": "湖南省", "city": "长沙市", "area": "开福区", "street_id": "19c4d1f346c84a0fc2f1cfe2", "detail": 1, "uid": "19c4d1f346c84a0fc2f1cfe2"}, {"name": "凯乐国际城-地下停车场", "location": {"lat": 28.224682, "lng": 112.98316}, "address": "开福湘江大道326号凯乐国际城", "province": "湖南省", "city": "长沙市", "area": "开福区", "street_id": "f37ff4655b9277c733169b9b", "detail": 1, "uid": "f37ff4655b9277c733169b9b"}, {"name": "凯乐国际城-停车场", "location": {"lat": 28.22465, "lng": 112.98351}, "address": "湖南省长沙市开福区百善台街凯乐国际城一期西门", "province": "湖南省", "city": "长沙市", "area": "开福区", "street_id": "6ba14b31fbdaf1d987330435", "detail": 1, "uid": "6ba14b31fbdaf1d987330435"}, {"name": "凯乐国际二期-地下停车场", "location": {"lat": 28.225113, "lng": 112.982539}, "address": "湖南省长沙市开福区竹山园街3号附近", "province": "湖南省", "city": "长沙市", "area": "开福区", "street_id": "77c814dc5c705a23dbd89152", "detail": 1, "uid": "77c814dc5c705a23dbd89152"}, {"name": "湘雅路西口停车场(出入口)", "location": {"lat": 28.219745, "lng": 112.982125}, "address": "湘雅路331号附近", "province": "湖南省", "city": "长沙市", "area": "开福区", "street_id": "c26772465aa2f22b14948ea5", "detail": 1, "uid": "c26772465aa2f22b14948ea5"}, {"name": "停车场(华盛·新外滩北)", "location": {"lat": 28.219527, "lng": 112.98159}, "address": "湘江大道288号", "province": "湖南省", "city": "长沙市", "area": "开福区", "detail": 1, "uid": "3a4f08dd6809578e43e192d9"}]