[{"name": "停车场(高升巷)", "location": {"lat": 28.21021, "lng": 112.980138}, "address": "高升巷37号附近", "province": "湖南省", "city": "长沙市", "area": "开福区", "street_id": "0e015e291022f9f9fb221374", "detail": 1, "uid": "0e015e291022f9f9fb221374"}, {"name": "停车场(通泰街街道办事处西南)", "location": {"lat": 28.209152, "lng": 112.980641}, "address": "寿星街4附近", "province": "湖南省", "city": "长沙市", "area": "开福区", "street_id": "78cb76d4eff99fcb15a19005", "detail": 1, "uid": "78cb76d4eff99fcb15a19005"}, {"name": "潮宗御苑-地下停车场", "location": {"lat": 28.210424, "lng": 112.978478}, "address": "长沙市开福区营盘路", "province": "湖南省", "city": "长沙市", "area": "开福区", "street_id": "b14c5adfa426facb40024501", "detail": 1, "uid": "b14c5adfa426facb40024501"}, {"name": "停车场(上城金都·国际公馆西南)", "location": {"lat": 28.208896, "lng": 112.981249}, "address": "寿星街4附近", "province": "湖南省", "city": "长沙市", "area": "开福区", "street_id": "af71f9613b30e07c5bf6be90", "detail": 1, "uid": "af71f9613b30e07c5bf6be90"}, {"name": "家润多超市(上城金都店)-地下停车场", "location": {"lat": 28.209469, "lng": 112.981472}, "address": "湖南省长沙市开福区北正街通泰街上城金都·国际公馆北门", "province": "湖南省", "city": "长沙市", "area": "开福区", "street_id": "ef7d7f86f0023a3cce04efa3", "detail": 1, "uid": "ef7d7f86f0023a3cce04efa3"}, {"name": "上城·金都-地下停车场", "location": {"lat": 28.209469, "lng": 112.981472}, "address": "黄兴北路89号", "province": "湖南省", "city": "长沙市", "area": "开福区", "street_id": "6ea19fbb04f4480443afe62d", "detail": 1, "uid": "6ea19fbb04f4480443afe62d"}, {"name": "上城金都南栋-停车场", "location": {"lat": 28.210036, "lng": 112.981603}, "address": "营盘路52号附近(近黄兴路)", "province": "湖南省", "city": "长沙市", "area": "开福区", "street_id": "92e9f0d47f93852214948eb2", "detail": 1, "uid": "92e9f0d47f93852214948eb2"}, {"name": "潮宗御苑-停车场", "location": {"lat": 28.210847, "lng": 112.978383}, "address": "营盘西路6号潮宗御苑", "province": "湖南省", "city": "长沙市", "area": "开福区", "street_id": "7368ad9608194dde744ff17f", "detail": 1, "uid": "7368ad9608194dde744ff17f"}]